[
  {
    "name": "Chiswick Gardens Cafe",
    "address": "Great West Road Chiswick W4 2QN",
    "data_source": "www.hounslow.gov.uk/publictoilets",
    "latitude": 51.48430185957563,
    "longitude": -0.25761424593885673,
    "borough": "Hounslow"
  },
  {
    "name": "Roebuck",
    "address": "122 Chiswick High Road Chiswick W4 1PU",
    "data_source": "www.hounslow.gov.uk/publictoilets",
    "latitude": 51.49301481486922,
    "longitude": -0.252639162764415,
    "borough": "Hounslow"
  },
  {
    "name": "Rush",
    "address": "380 Chiswick High Road Chiswick W4 5TF",
    "data_source": "www.hounslow.gov.uk/publictoilets",
    "latitude": 51.49267971552238,
    "longitude": -0.26423718614019487,
    "borough": "Hounslow"
  },
  {
    "name": "Starbucks Coffee",
    "address": "Chiswick High Road Chiswick W4 5TF",
    "data_source": "www.hounslow.gov.uk/publictoilets",
    "latitude": 51.49264017507474,
    "longitude": -0.26400134241370726,
    "borough": "Hounslow"
  },
  {
    "name": "Nandos",
    "address": "Chiswick High Road Chiswick W4 2DR",
    "data_source": "www.hounslow.gov.uk/publictoilets",
    "latitude": 51.49238084475446,
    "longitude": -0.25721071805484846,
    "borough": "Hounslow"
  },
  {
    "name": "George IV",
    "address": "185 Chiswick High Road Chiswick W4 2DR",
    "data_source": "www.hounslow.gov.uk/publictoilets",
    "latitude": 51.49203834306879,
    "longitude": -0.2569154713189212,
    "borough": "Hounslow"
  },
  {
    "name": "Packhorse and Talbot",
    "address": "145 Chiswick High Road Chiswick W4 2DT",
    "data_source": "www.hounslow.gov.uk/publictoilets",
    "latitude": 51.49253664223842,
    "longitude": -0.2544733562738797,
    "borough": "Hounslow"
  },
  {
    "name": "Kings House Sports Ground",
    "address": "Riverside Drive Dukes Meadow Chiswick W4 2SH",
    "data_source": "www.hounslow.gov.uk/publictoilets",
    "latitude": 51.47653455298813,
    "longitude": -0.25356898664650324,
    "borough": "Hounslow"
  },
  {
    "name": "Dukes Meadows Golf and Tennis",
    "address": "Dan Mason Drive Chiswick W4 2SH",
    "data_source": "www.hounslow.gov.uk/publictoilets",
    "latitude": 51.47240463485995,
    "longitude": -0.2638742919631379,
    "borough": "Hounslow"
  },
  {
    "name": "New Chiswick Pool",
    "address": "Edensor Road Chiswick W4 2RG",
    "data_source": "www.hounslow.gov.uk/publictoilets",
    "latitude": 51.48201912075342,
    "longitude": -0.25487549654250663,
    "borough": "Hounslow"
  },
  {
    "name": "Chapels at Chiswick New Cemetery",
    "address": "22 Staveley Gardens Chiswick W4 2SA",
    "data_source": "www.hounslow.gov.uk/publictoilets",
    "latitude": 51.47972053734753,
    "longitude": -0.2614263500546062,
    "borough": "Hounslow"
  },
  {
    "name": "McDonalds",
    "address": "2 Bedfont Lane Feltham TW13 4AE",
    "data_source": "www.hounslow.gov.uk/publictoilets",
    "latitude": 51.44710806061923,
    "longitude": -0.40948972064712097,
    "borough": "Hounslow"
  },
  {
    "name": "Feltham Station",
    "address": " Road High Street Feltham TW13 4BY",
    "data_source": "www.hounslow.gov.uk/publictoilets",
    "latitude": 51.448041783739455,
    "longitude": -0.4090333371795898,
    "borough": "Hounslow"
  },
  {
    "name": "Isleworth Library",
    "address": "Twickenham Road Isleworth TW7 7EU",
    "data_source": "www.hounslow.gov.uk/publictoilets",
    "latitude": 51.46659813893175,
    "longitude": -0.330093933716439,
    "borough": "Hounslow"
  },
  {
    "name": "Volvo Cars West London Ltd",
    "address": "115 Power Road Chiswick W4 5PY",
    "data_source": "www.hounslow.gov.uk/publictoilets",
    "latitude": 51.49360558024623,
    "longitude": -0.2813335589641276,
    "borough": "Hounslow"
  },
  {
    "name": "Musical Museum",
    "address": "399 High Street Brentford TW8 0DU",
    "data_source": "www.hounslow.gov.uk/publictoilets",
    "latitude": 51.487847593488894,
    "longitude": -0.2932542873623402,
    "borough": "Hounslow"
  },
  {
    "name": "Brentford Fountain Leisure Centre",
    "address": "658 Chiswick High Road Brentford TW8 0HJ",
    "data_source": "www.hounslow.gov.uk/publictoilets",
    "latitude": 51.49085348227785,
    "longitude": -0.28504871687944333,
    "borough": "Hounslow"
  },
  {
    "name": "Watermans Arts Centre",
    "address": "Watermans Arts Centre 40 High Street Brentford TW8 0DS",
    "data_source": "www.hounslow.gov.uk/publictoilets",
    "latitude": 51.48581567940497,
    "longitude": -0.29864543544127053,
    "borough": "Hounslow"
  },
  {
    "name": "Brentford Station",
    "address": "Boston Manor Road Brentford TW8 8DT",
    "data_source": "www.hounslow.gov.uk/publictoilets",
    "latitude": 51.487570112019355,
    "longitude": -0.3096135448529694,
    "borough": "Hounslow"
  },
  {
    "name": "Verdict Bakery",
    "address": "High Street Brentford TW8 8FJ",
    "data_source": "www.hounslow.gov.uk/publictoilets",
    "latitude": 51.483276555707,
    "longitude": -0.3089800805368493,
    "borough": "Hounslow"
  },
  {
    "name": "Morrisons",
    "address": "228-246 High Street Brentford TW8 0JG",
    "data_source": "www.hounslow.gov.uk/publictoilets",
    "latitude": 51.48377288654607,
    "longitude": -0.3056147985109731,
    "borough": "Hounslow"
  },
  {
    "name": "Syon Gardens",
    "address": "Exact locaction in Syon Park unsure - please pinpoint me more accurately using suggest a toilet",
    "data_source": "www.hounslow.gov.uk/publictoilets",
    "latitude": 51.47732937739502,
    "longitude": -0.31289146112590227,
    "borough": "Hounslow"
  },
  {
    "name": "Syon Park Garden Centre",
    "address": "Syon Park London Road Brentford TW8 8JG",
    "data_source": "www.hounslow.gov.uk/publictoilets",
    "latitude": 51.47766203012974,
    "longitude": -0.31426563181796324,
    "borough": "Hounslow"
  },
  {
    "name": "Homebase",
    "address": "Syon Lane Isleworth TW7 5QE",
    "data_source": "www.hounslow.gov.uk/publictoilets",
    "latitude": 51.483130980319174,
    "longitude": -0.3252133687562391,
    "borough": "Hounslow"
  },
  {
    "name": "The Cafe",
    "address": "215 Twickenham Road Isleworth TW7 6AA",
    "data_source": "www.hounslow.gov.uk/publictoilets",
    "latitude": 51.470959952557024,
    "longitude": -0.3285861895820234,
    "borough": "Hounslow"
  },
  {
    "name": "Osterley Garden Centre",
    "address": "Windmill Lane Osterley TW7 5PR",
    "data_source": "www.hounslow.gov.uk/publictoilets",
    "latitude": 51.49110751372754,
    "longitude": -0.33825260844172766,
    "borough": "Hounslow"
  },
  {
    "name": "Bullstrode",
    "address": "55 Lampton Road TW3 1JG",
    "data_source": "www.hounslow.gov.uk/publictoilets",
    "latitude": 51.47030022724347,
    "longitude": -0.366607842169675,
    "borough": "Hounslow"
  },
  {
    "name": "Treaty Centre",
    "address": "High Street TW3 1ES",
    "data_source": "www.hounslow.gov.uk/publictoilets",
    "latitude": 51.46781871077716,
    "longitude": -0.3632894258120808,
    "borough": "Hounslow"
  },
  {
    "name": "Tiger Lily Restaurant",
    "address": "169 Thornbury Road Osterley TW7 4QG",
    "data_source": "www.hounslow.gov.uk/publictoilets",
    "latitude": 51.482979079248025,
    "longitude": -0.34768129754172045,
    "borough": "Hounslow"
  },
  {
    "name": "Park Cafe",
    "address": "163 Thornbury Road Osterley TW7 4QG",
    "data_source": "www.hounslow.gov.uk/publictoilets",
    "latitude": 51.48284392706314,
    "longitude": -0.3476262738868745,
    "borough": "Hounslow"
  },
  {
    "name": "St Marys Church Hall",
    "address": "Osterley Road Isleworth TW7 4PW",
    "data_source": "www.hounslow.gov.uk/publictoilets",
    "latitude": 51.48114725780196,
    "longitude": -0.34344464054862267,
    "borough": "Hounslow"
  },
  {
    "name": "Blenheim Centre",
    "address": "Prince Regent Road TW3 1NL",
    "data_source": "www.hounslow.gov.uk/publictoilets",
    "latitude": 51.47112396354511,
    "longitude": -0.36299781137976883,
    "borough": "Hounslow"
  },
  {
    "name": "Hounslow Shopmobility",
    "address": "Blenheim Centre Prince Regent Road TW3 1NL",
    "data_source": "www.hounslow.gov.uk/publictoilets",
    "latitude": 51.471125438110796,
    "longitude": -0.36168081918872436,
    "borough": "Hounslow"
  },
  {
    "name": "The Gym",
    "address": "Blenheim Centre Prince Regent Road TW3 1NL",
    "data_source": "www.hounslow.gov.uk/publictoilets",
    "latitude": 51.47093281215733,
    "longitude": -0.3626568656102612,
    "borough": "Hounslow"
  },
  {
    "name": "Asda",
    "address": "Prince Regent Road TW3 1NL",
    "data_source": "www.hounslow.gov.uk/publictoilets",
    "latitude": 51.470814393343005,
    "longitude": -0.3615997444652341,
    "borough": "Hounslow"
  },
  {
    "name": "Osterley Park",
    "address": "Jersey Road Osterley TW7 4RB",
    "data_source": "www.hounslow.gov.uk/publictoilets",
    "latitude": 51.49018004952864,
    "longitude": -0.35221620041494556,
    "borough": "Hounslow"
  },
  {
    "name": "Computer Learning Centre",
    "address": "65 Kingsley Road TW3 1QB",
    "data_source": "www.hounslow.gov.uk/publictoilets",
    "latitude": 51.472809120524495,
    "longitude": -0.35640498023385236,
    "borough": "Hounslow"
  },
  {
    "name": "KFC",
    "address": "183-184 High Street TW3 1HL",
    "data_source": "www.hounslow.gov.uk/publictoilets",
    "latitude": 51.46922108827602,
    "longitude": -0.36131071633931133,
    "borough": "Hounslow"
  },
  {
    "name": "Starbucks Coffee",
    "address": "198 High Street TW3 1HL",
    "data_source": "www.hounslow.gov.uk/publictoilets",
    "latitude": 51.468827145578544,
    "longitude": -0.3626848440521721,
    "borough": "Hounslow"
  },
  {
    "name": "Subway",
    "address": "158 High Street TW3 1LR",
    "data_source": "www.hounslow.gov.uk/publictoilets",
    "latitude": 51.469305751921276,
    "longitude": -0.3606189053933728,
    "borough": "Hounslow"
  },
  {
    "name": "McDonalds",
    "address": "200 High Street TW3 1HE",
    "data_source": "www.hounslow.gov.uk/publictoilets",
    "latitude": 51.46880459276186,
    "longitude": -0.36284656890027867,
    "borough": "Hounslow"
  },
  {
    "name": "T.K.Maxx",
    "address": "230-236 High Street TW3 1HB",
    "data_source": "www.hounslow.gov.uk/publictoilets",
    "latitude": 51.468305274043686,
    "longitude": -0.3655855237026288,
    "borough": "Hounslow"
  },
  {
    "name": "Yatess",
    "address": "1-3 Bath Road TW3 3BJ",
    "data_source": "www.hounslow.gov.uk/publictoilets",
    "latitude": 51.468491664843526,
    "longitude": -0.36664786026631724,
    "borough": "Hounslow"
  },
  {
    "name": "Redlees Stables Art Studio",
    "address": "Redlees Park Worton Road Isleworth TW7 6DW",
    "data_source": "www.hounslow.gov.uk/publictoilets",
    "latitude": 51.46743592121901,
    "longitude": -0.33230285799270276,
    "borough": "Hounslow"
  },
  {
    "name": "Bridgelink Centre",
    "address": "Summerwood Road Isleworth TW7 7QU",
    "data_source": "www.hounslow.gov.uk/publictoilets",
    "latitude": 51.45867825645698,
    "longitude": -0.331543210030731,
    "borough": "Hounslow"
  },
  {
    "name": "Cross Lances",
    "address": "236 Hanworth Road TW3 3TU",
    "data_source": "www.hounslow.gov.uk/publictoilets",
    "latitude": 51.46433599131973,
    "longitude": -0.3648675505250641,
    "borough": "Hounslow"
  },
  {
    "name": "Inwood Park cafe",
    "address": "103 Inwood Road,  TW3 1XG",
    "data_source": "www.hounslow.gov.uk/publictoilets",
    "latitude": 51.46782668991685,
    "longitude": -0.3580228361703486,
    "borough": "Hounslow"
  },
  {
    "name": "Fiat Parkside",
    "address": "106 Whitton Road TW3 2ES",
    "data_source": "www.hounslow.gov.uk/publictoilets",
    "latitude": 51.46015840261066,
    "longitude": -0.36242763349564516,
    "borough": "Hounslow"
  },
  {
    "name": "Heston Services M4 Eastbound",
    "address": "Junction 2-3 M4 TW5 9NA",
    "data_source": "www.hounslow.gov.uk/publictoilets",
    "latitude": 51.488509515185825,
    "longitude": -0.38784335330899533,
    "borough": "Hounslow"
  },
  {
    "name": "Caffe Venezia",
    "address": "48 Lampton Road TW3 1JQ",
    "data_source": "www.hounslow.gov.uk/publictoilets",
    "latitude": 51.47086505020426,
    "longitude": -0.3672228262283507,
    "borough": "Hounslow"
  },
  {
    "name": "Heston Library",
    "address": "New Heston Road TW5 0LW",
    "data_source": "www.hounslow.gov.uk/publictoilets",
    "latitude": 51.485823272246016,
    "longitude": -0.37529242812970937,
    "borough": "Hounslow"
  },
  {
    "name": "Heston Village Hall",
    "address": "New Heston Road Heston TW5 0LW",
    "data_source": "www.hounslow.gov.uk/publictoilets",
    "latitude": 51.48552751466871,
    "longitude": -0.3756098244368053,
    "open": false,
    "borough": "Hounslow"
  },
  {
    "name": "Rose and Crown",
    "address": "220 Heston Road Heston TW5 0RH",
    "data_source": "www.hounslow.gov.uk/publictoilets",
    "latitude": 51.48588143720943,
    "longitude": -0.37324035159716595,
    "borough": "Hounslow"
  },
  {
    "name": "Honeycombe",
    "address": "417 Staines Road TW4 5AR",
    "data_source": "www.hounslow.gov.uk/publictoilets",
    "latitude": 51.46334028260784,
    "longitude": -0.38733414408089717,
    "borough": "Hounslow"
  },
  {
    "name": "Il Bebo's",
    "address": "62 Staines Road TW3 3LZ",
    "data_source": "www.hounslow.gov.uk/publictoilets",
    "latitude": 51.46716373136617,
    "longitude": -0.36820943394205247,
    "borough": "Hounslow"
  }
]