[
  {
    "data_source": "Dataset sent in by Healthmatic 26/10/20",
    "address": "Gracechurch Street, Bishopsgate, City of  EC3",
    "opening_hours": "yes",
    "name": "East Cheap London",
    "baby_change": true,
    "latitude": 51.510918,
    "longitude": -0.085843,
    "wheelchair": true,
    "fee": "50p",
    "borough": ""
  },
  {
    "data_source": "Dataset sent in by Healthmatic 26/10/20",
    "address": "Coulsdon Library, Brighton Road, London Borough of Croydon,  CR5 2NH",
    "opening_hours": "",
    "name": "Coulsden High St",
    "baby_change": false,
    "latitude": 51.319998,
    "longitude": -0.138764,
    "wheelchair": false,
    "fee": "",
    "borough": "Croydon"
  },
  {
    "data_source": "Dataset sent in by Healthmatic 26/10/20",
    "address": "Fulwell Cross Library, 140, High Street, Barkingside, London Borough of Redbridge,  IG6 2EA",
    "opening_hours": "",
    "name": "Fulwell Cross",
    "baby_change": false,
    "latitude": 51.5931777,
    "longitude": 0.0851636409288825,
    "wheelchair": false,
    "fee": "",
    "borough": "Redbridge"
  },
  {
    "data_source": "Dataset sent in by Healthmatic 26/10/20",
    "address": "The Hope, 94, Cowcross Street, Farringdon, Clerkenwell, London Borough of Islington,  EC1M 6BH",
    "opening_hours": "",
    "name": "Cowcross/Hope Pub",
    "baby_change": false,
    "latitude": 51.5198,
    "longitude": -0.102105,
    "wheelchair": false,
    "fee": "50p",
    "borough": "Islington"
  },
  {
    "data_source": "Dataset sent in by Healthmatic 26/10/20",
    "address": "Platform 3, Highbury Crescent, Highbury, London Borough of Islington,  N5 1RE",
    "opening_hours": "Yes",
    "name": "Highbury Crescent Automatic Public Toilet",
    "baby_change": true,
    "latitude": 51.547054,
    "longitude": -0.10396,
    "wheelchair": true,
    "fee": "20p",
    "borough": "Islington"
  },
  {
    "data_source": "Dataset sent in by Healthmatic 26/10/20",
    "address": "Jubilee Gardens, Belvedere Road, South Bank, Lambeth, London Borough of Lambeth,  SE1 7PG",
    "opening_hours": "yes ",
    "name": "Jubilee Gardens Main Loo",
    "baby_change": true,
    "latitude": 51.504738,
    "longitude": -0.118535,
    "wheelchair": true,
    "fee": "50p",
    "borough": "Lambeth"
  },
  {
    "data_source": "Dataset sent in by Healthmatic 26/10/20",
    "address": "Curry Leaf, 256, Coulsdon Road, London Borough of Croydon,  CR5 1EA",
    "opening_hours": "Yes",
    "name": "Grange Park Automatic Public Toilet",
    "baby_change": false,
    "latitude": 51.307178,
    "longitude": -0.120307,
    "wheelchair": true,
    "fee": "20p",
    "borough": "Croydon"
  },
  {
    "data_source": "Dataset sent in by Healthmatic 26/10/20",
    "address": "Kingsland Shopping Centre, Kingsland High Street, Dalston, London Borough of Hackney,  E8 2LX",
    "opening_hours": "yes",
    "name": "Kingsland Shopping Centre",
    "baby_change": true,
    "latitude": 51.54754905,
    "longitude": -0.0739976553161766,
    "wheelchair": true,
    "fee": 1,
    "borough": "Hackney"
  },
  {
    "data_source": "Dataset sent in by Healthmatic 26/10/20",
    "address": "UCKG, 232-238, Seven Sisters Road, Finsbury Park, London Borough of Islington,  N4 3GG",
    "opening_hours": "Yes",
    "name": "Seven Sisters Road Automatic Public Toilet",
    "baby_change": true,
    "latitude": 51.562901,
    "longitude": -0.108242,
    "wheelchair": true,
    "fee": "20p",
    "borough": "Islington"
  },
  {
    "data_source": "Dataset sent in by Healthmatic 26/10/20",
    "address": "Foyles, The Queen's Walk, South Bank, Lambeth, London Borough of Lambeth,  SE1 8XT",
    "opening_hours": "",
    "name": "Jubilee Gardens Paddlegates",
    "baby_change": false,
    "latitude": 51.5061,
    "longitude": -0.117771,
    "wheelchair": false,
    "fee": "",
    "borough": "Lambeth"
  },
  {
    "data_source": "Dataset sent in by Healthmatic 26/10/20",
    "address": "Le Pain Quotidien, Festival Terrace, South Bank, Lambeth, London Borough of Lambeth,  SE1 8XX",
    "opening_hours": "yes ",
    "name": "Jubilee Gardens PT Auto",
    "baby_change": true,
    "latitude": 51.505207,
    "longitude": -0.117556,
    "wheelchair": true,
    "fee": "50p",
    "borough": "Lambeth"
  },
  {
    "data_source": "Dataset sent in by Healthmatic 26/10/20",
    "address": "Tennis Office, Church Path, Highbury, London Borough of Islington,  N5 1BA",
    "opening_hours": "Yes",
    "name": "Highbury Fields Automatic Public Toilet",
    "baby_change": true,
    "latitude": 51.551325,
    "longitude": -0.09936,
    "wheelchair": true,
    "fee": "20p",
    "borough": "Islington"
  },
  {
    "data_source": "Dataset sent in by Healthmatic 26/10/20",
    "address": "Islington Green, Angel, Highbury, London Borough of Islington,  N1 2XR",
    "opening_hours": "Yes",
    "name": "Islington Green Automatic Public Toilet",
    "baby_change": false,
    "latitude": 51.536241,
    "longitude": -0.1024704,
    "wheelchair": true,
    "fee": "20p",
    "borough": "Islington"
  },
  {
    "data_source": "Dataset sent in by Healthmatic 26/10/20",
    "address": "Sports Direct, Holloway Road, Holloway, London Borough of Islington,  N7 9SB",
    "opening_hours": "Yes",
    "name": "Holloway Road Automatic Public Toilet",
    "baby_change": false,
    "latitude": 51.556195,
    "longitude": -0.117544,
    "wheelchair": true,
    "fee": "20p",
    "borough": "Islington"
  },
  {
    "data_source": "Dataset sent in by Healthmatic 26/10/20",
    "address": "Lizzy\u2019s on the Green, Newington Green, Canonbury, London Borough of Islington,  N16 9PX",
    "opening_hours": "Yes",
    "name": "Newington Green Automatic Public Toilet",
    "baby_change": false,
    "latitude": 51.551557,
    "longitude": -0.085285,
    "wheelchair": true,
    "fee": "20p",
    "borough": "Islington"
  },
  {
    "data_source": "Dataset sent in by Healthmatic 26/10/20",
    "address": "Tech City College, 263-269, City Road, Saint Luke's, Finsbury, London Borough of Islington,  EC1V 1JX",
    "opening_hours": "Yes",
    "name": "City Road Automatic Public Toilet",
    "baby_change": false,
    "latitude": 51.529885,
    "longitude": -0.098039,
    "wheelchair": true,
    "fee": "20p",
    "borough": "Islington"
  }
]