[
  {
    "data_source": "https://data.gov.uk/ 23/07/2022",
    "borough": "Barnet",
    "address": "Burnt Oak Library",
    "opening_hours": "Mo,Tu,We,Fr,Sa 09:00-17:00; Th 09:00-20:00; Su off",
    "name": "Library toilets",
    "latitude": 51.6032534,
    "longitude": -0.2631985516416633,
    "open": true
  },
  {
    "data_source": "https://data.gov.uk/ 23/07/2022",
    "borough": "Barnet",
    "address": "Chipping Barnet Library",
    "opening_hours": "Mo 10:00-20:00; Tu,Th,Sa 09:30-17:00; We,Fr 09:30-20:00; Su 14:00-17:00",
    "name": "Library toilets",
    "latitude": 51.6561286,
    "longitude": -0.2047384886501633,
    "open": true
  },
  {
    "data_source": "https://data.gov.uk/ 23/07/2022",
    "borough": "Barnet",
    "address": "Church End Library",
    "opening_hours": "Mo 09:30-20:00; Tu,Th-Sa 09:30-17:00; We 10:00-20:00; Su off",
    "name": "Library toilets",
    "latitude": 51.5999559,
    "longitude": -0.1950956,
    "open": true
  },
  {
    "data_source": "https://data.gov.uk/ 23/07/2022",
    "borough": "Barnet",
    "address": "East Barnet Library",
    "opening_hours": "Mo,We,Fr,Sa 09:30-17:00; Tu 09:30-20:00; Th 10:00-20:00; Su off",
    "name": "Library toilets",
    "latitude": 51.644388750000005,
    "longitude": -0.16155560966923524,
    "open": true
  },
  {
    "data_source": "https://data.gov.uk/ 23/07/2022",
    "borough": "Barnet",
    "address": "East Finchley Library",
    "opening_hours": "Mo,Th,Sa 09:30-17:00; We 09:30-20:00; Fr 10:00-17:00; Tu,Su off",
    "name": "Library toilets",
    "latitude": 51.59391285,
    "longitude": -0.1675654183746228,
    "open": true
  },
  {
    "data_source": "https://data.gov.uk/ 23/07/2022",
    "borough": "Barnet",
    "address": "Edgware Library",
    "opening_hours": "Mo,We,Fr,Sa 09:30-17:00; Tu 09:30-20:00; Th 10:00-20:00; Su 14:00-17:00",
    "name": "Library toilets",
    "latitude": 51.616254,
    "longitude": -0.2740086059662121,
    "open": true
  },
  {
    "data_source": "https://data.gov.uk/ 23/07/2022",
    "borough": "Barnet",
    "address": "Hendon Library",
    "opening_hours": "Mo,We 09:30-20:00; Tu,Fr-Sa 09:30-17:00; Th 10:00-20:00; Su 14:00-17:00",
    "name": "Library toilets",
    "latitude": 51.5885771,
    "longitude": -0.2288779,
    "open": true
  },
  {
    "data_source": "https://data.gov.uk/ 23/07/2022",
    "borough": "Barnet",
    "address": "Mill Hill Library",
    "opening_hours": " Tu 09:30-20:00;  Mo,Fr-Sa 09:30-17:00; Th 10:00-20:00; We,Su off",
    "name": "Library toilets",
    "latitude": 51.61539435,
    "longitude": -0.24306394627562095,
    "open": true
  },
  {
    "data_source": "https://data.gov.uk/ 23/07/2022",
    "borough": "Barnet",
    "address": "North Finchley Library",
    "opening_hours": " Tu,Fr 09:30-20:00;  Mo,Sa 09:30-17:00; Th 10:00-17:00; We,Su off",
    "name": "Library toilets",
    "latitude": 51.6186239,
    "longitude": -0.17589879726297197,
    "open": true
  },
  {
    "data_source": "https://data.gov.uk/ 23/07/2022",
    "borough": "Barnet",
    "address": "Osidge Library",
    "opening_hours": " Tu 09:30-20:00;  Mo,Fr 09:30-17:00; We 10:00-17:00; Th,Su off; Sa 09:30-13:00, 14:00-15:00",
    "name": "Library toilets",
    "latitude": 51.630347400000005,
    "longitude": -0.14908155686882668,
    "open": true
  },
  {
    "data_source": "https://data.gov.uk/ 23/07/2022",
    "borough": "Barnet",
    "address": "South Friern Library",
    "opening_hours": "Mo,Tu,Th,Sa 09:30-13:00, 14:00-17:00; We 10:00-13:00, 14:00-20:00; Fr,Su off",
    "name": "Library toilets",
    "latitude": 51.600496500000006,
    "longitude": -0.14801501947394524,
    "open": true
  }
]