[
  {
    "name": "Chiswick Gardens Cafe",
    "address": "Great West Road Chiswick W4 2QN",
    "data_source": "hounslow.gov.uk/publictoilets 20/03/2022",
    "latitude": 51.4875655,
    "longitude": -0.2612595,
    "borough": "Hounslow"
  },
  {
    "name": "Roebuck",
    "address": "122 Chiswick High Road Chiswick W4 1PU",
    "data_source": "hounslow.gov.uk/publictoilets 20/03/2022",
    "latitude": 51.4927552,
    "longitude": -0.2535875,
    "borough": "Hounslow"
  },
  {
    "name": "Crown and Anchor",
    "address": "374 Chiswick High Road Chiswick W4 5TA",
    "data_source": "hounslow.gov.uk/publictoilets 20/03/2022",
    "latitude": 51.4923968,
    "longitude": -0.2618079,
    "borough": "Hounslow"
  },
  {
    "name": "Rush",
    "address": "380 Chiswick High Road Chiswick W4 5TF",
    "data_source": "hounslow.gov.uk/publictoilets 20/03/2022",
    "latitude": 51.49269265,
    "longitude": -0.2642191654006679,
    "borough": "Hounslow"
  },
  {
    "name": "Starbucks Coffee",
    "address": "Chiswick High Road Chiswick W4 5TF",
    "data_source": "hounslow.gov.uk/publictoilets 20/03/2022",
    "latitude": 51.4925667,
    "longitude": -0.2652437,
    "borough": "Hounslow"
  },
  {
    "name": "Nando&#39;s",
    "address": "Chiswick High Road Chiswick W4 2DR",
    "data_source": "hounslow.gov.uk/publictoilets 20/03/2022",
    "latitude": 51.4926241,
    "longitude": -0.2568228,
    "borough": "Hounslow"
  },
  {
    "name": "George IV",
    "address": "185 Chiswick High Road Chiswick W4 2DR",
    "data_source": "hounslow.gov.uk/publictoilets 20/03/2022",
    "latitude": 51.4922387,
    "longitude": -0.25709734181704924,
    "borough": "Hounslow"
  },
  {
    "name": "Packhorse and Talbot",
    "address": "145 Chiswick High Road Chiswick W4 2DT",
    "data_source": "hounslow.gov.uk/publictoilets 20/03/2022",
    "latitude": 51.4925716,
    "longitude": -0.2569698,
    "borough": "Hounslow"
  },
  {
    "name": "Dukes Meadows Golf and Tennis",
    "address": "Dan Mason Drive Chiswick W4 2SH",
    "data_source": "hounslow.gov.uk/publictoilets 20/03/2022",
    "latitude": 51.4739163,
    "longitude": -0.2563828,
    "borough": "Hounslow"
  },
  {
    "name": "New Chiswick Pool",
    "address": "Edensor Road Chiswick W4 2RG",
    "data_source": "hounslow.gov.uk/publictoilets 20/03/2022",
    "latitude": 51.4819954,
    "longitude": -0.2562415,
    "borough": "Hounslow"
  },
  {
    "name": "Chapels at Chiswick New Cemetery",
    "address": "22 Staveley Gardens Chiswick W4 2SA",
    "data_source": "hounslow.gov.uk/publictoilets 20/03/2022",
    "latitude": 51.4775688,
    "longitude": -0.2596511,
    "borough": "Hounslow"
  },
  {
    "name": "Frankie &amp; Benny&#39;s",
    "address": "Feltham Leisure Park Feltham TW13 7EQ",
    "data_source": "hounslow.gov.uk/publictoilets 20/03/2022",
    "latitude": 51.443266,
    "longitude": -0.4060954,
    "borough": "Hounslow"
  },
  {
    "name": "McDonald&#39;s",
    "address": "2 Bedfont Lane Feltham TW13 4AE",
    "data_source": "hounslow.gov.uk/publictoilets 20/03/2022",
    "latitude": 51.4471556,
    "longitude": -0.4095840645369454,
    "borough": "Hounslow"
  },
  {
    "name": "Isleworth Leisure Centre",
    "address": "Twickenham Road Isleworth TW7 7EU",
    "data_source": "hounslow.gov.uk/publictoilets 20/03/2022",
    "latitude": 51.4640698,
    "longitude": -0.3312575,
    "borough": "Hounslow"
  },
  {
    "name": "Isleworth Library",
    "address": "Twickenham Road Isleworth TW7 7EU",
    "data_source": "hounslow.gov.uk/publictoilets 20/03/2022",
    "latitude": 51.4640698,
    "longitude": -0.3312575,
    "borough": "Hounslow"
  },
  {
    "name": "Isleworth Community Room",
    "address": "Isleworth Library Twickenham Road Isleworth TW7 7EU",
    "data_source": "hounslow.gov.uk/publictoilets 20/03/2022",
    "latitude": 51.4669489,
    "longitude": -0.3296417,
    "borough": "Hounslow"
  },
  {
    "name": "Volvo Cars West London Ltd",
    "address": "115 Power Road Chiswick W4 5PY",
    "data_source": "hounslow.gov.uk/publictoilets 20/03/2022",
    "latitude": 51.4935075,
    "longitude": -0.2801067,
    "borough": "Hounslow"
  },
  {
    "name": "Musical Museum",
    "address": "399 High Street Brentford TW8 0DU",
    "data_source": "hounslow.gov.uk/publictoilets 20/03/2022",
    "latitude": 51.4878351,
    "longitude": -0.29311224754744614,
    "borough": "Hounslow"
  },
  {
    "name": "Brentford Fountain Leisure Centre",
    "address": "658 Chiswick High Road Brentford TW8 0HJ",
    "data_source": "hounslow.gov.uk/publictoilets 20/03/2022",
    "latitude": 51.4908209,
    "longitude": -0.2841467,
    "borough": "Hounslow"
  },
  {
    "name": "Watermans Arts Centre",
    "address": "40 High Street Brentford TW8 0DS",
    "data_source": "hounslow.gov.uk/publictoilets 20/03/2022",
    "latitude": 51.4700637,
    "longitude": -0.3566524,
    "borough": "Hounslow"
  },
  {
    "name": "Brentford Station",
    "address": "Boston Manor Road Brentford TW8 8DT",
    "data_source": "hounslow.gov.uk/publictoilets 20/03/2022",
    "latitude": 51.48731,
    "longitude": -0.3100618,
    "borough": "Hounslow"
  },
  {
    "name": "Travelodge (London Kew Bridge)",
    "address": "North Road High Street Brentford TW8 0BD",
    "data_source": "hounslow.gov.uk/publictoilets 20/03/2022",
    "latitude": 51.4703322,
    "longitude": -0.3558225,
    "borough": "Hounslow"
  },
  {
    "name": "Brentford Library",
    "address": "11F Boston Manor Road TW8 8DW",
    "data_source": "hounslow.gov.uk/publictoilets 20/03/2022",
    "latitude": 51.4881592,
    "longitude": -0.3127417,
    "borough": "Hounslow"
  },
  {
    "name": "Isleworth Public Hall",
    "address": "South Street Isleworth TW7 7BG",
    "data_source": "hounslow.gov.uk/publictoilets 20/03/2022",
    "latitude": 51.4685849,
    "longitude": -0.3254424,
    "borough": "Hounslow"
  },
  {
    "name": "Verdict",
    "address": "High Street Brentford TW8 8FJ",
    "data_source": "hounslow.gov.uk/publictoilets 20/03/2022",
    "latitude": 51.4837969,
    "longitude": -0.3046136,
    "borough": "Hounslow"
  },
  {
    "name": "Morrisons",
    "address": "228-246 High Street Brentford TW8 0JG",
    "data_source": "hounslow.gov.uk/publictoilets 20/03/2022",
    "latitude": 51.4838857,
    "longitude": -0.30569977111018487,
    "borough": "Hounslow"
  },
  {
    "name": "St Pauls Church and Parish Centre",
    "address": "St Pauls Road Brentford TW8 0PN",
    "data_source": "hounslow.gov.uk/publictoilets 20/03/2022",
    "latitude": 51.4849399,
    "longitude": -0.3052294,
    "borough": "Hounslow"
  },
  {
    "name": "Syon Gardens",
    "address": "Syon Park London Road Brentford TW8 8JF",
    "data_source": "hounslow.gov.uk/publictoilets 20/03/2022",
    "latitude": 51.4796558,
    "longitude": -0.3151651991553095,
    "borough": "Hounslow"
  },
  {
    "name": "London Apprentice",
    "address": "62 Church Street Isleworth TW7 6BG",
    "data_source": "hounslow.gov.uk/publictoilets 20/03/2022",
    "latitude": 51.471079700000004,
    "longitude": -0.3208071425007799,
    "borough": "Hounslow"
  },
  {
    "name": "Syon Park Garden Centre",
    "address": "Syon Park London Road Brentford TW8 8JG",
    "data_source": "hounslow.gov.uk/publictoilets 20/03/2022",
    "latitude": 51.4796558,
    "longitude": -0.3151651991553095,
    "borough": "Hounslow"
  },
  {
    "name": "A.C. Curd Ltd",
    "address": "55 South Street Isleworth TW7 7AA",
    "data_source": "hounslow.gov.uk/publictoilets 20/03/2022",
    "latitude": 51.4684529,
    "longitude": -0.3261964,
    "borough": "Hounslow"
  },
  {
    "name": "Homebase",
    "address": "Syon Lane Isleworth TW7 5QE",
    "data_source": "hounslow.gov.uk/publictoilets 20/03/2022",
    "latitude": 51.4809804,
    "longitude": -0.3218664,
    "borough": "Hounslow"
  },
  {
    "name": "The Caf&#233;",
    "address": "215 Twickenham Road Isleworth TW7 6AA",
    "data_source": "hounslow.gov.uk/publictoilets 20/03/2022",
    "latitude": 51.4714669,
    "longitude": -0.3283937,
    "borough": "Hounslow"
  },
  {
    "name": "Osterley Garden Centre",
    "address": "Windmill Lane Osterley TW7 5PR",
    "data_source": "hounslow.gov.uk/publictoilets 20/03/2022",
    "latitude": 51.4905004,
    "longitude": -0.3394045,
    "borough": "Hounslow"
  },
  {
    "name": "Toys R Us",
    "address": "Hayes Road Southall UB2 5LN",
    "data_source": "hounslow.gov.uk/publictoilets 20/03/2022",
    "latitude": 51.5130866,
    "longitude": -0.3898868,
    "borough": "Hounslow"
  },
  {
    "name": "Bullstrode",
    "address": "55 Lampton Road TW3 1JG",
    "data_source": "hounslow.gov.uk/publictoilets 20/03/2022",
    "latitude": 51.4707517,
    "longitude": -0.3669356,
    "borough": "Hounslow"
  },
  {
    "name": "Currie Easy Self Storage",
    "address": "207-209 Worton Road TW7 6DS",
    "data_source": "hounslow.gov.uk/publictoilets 20/03/2022",
    "latitude": 51.4676838,
    "longitude": -0.3297998,
    "borough": "Hounslow"
  },
  {
    "name": "Continental Hotel",
    "address": "29-31 Lampton Road TW3 1JA",
    "data_source": "hounslow.gov.uk/publictoilets 20/03/2022",
    "latitude": 51.4687939,
    "longitude": -0.3667699,
    "borough": "Hounslow"
  },
  {
    "name": "Treaty Centre",
    "address": "High Street TW3 1ES",
    "data_source": "hounslow.gov.uk/publictoilets 20/03/2022",
    "latitude": 51.4687419,
    "longitude": -0.3623428,
    "borough": "Hounslow"
  },
  {
    "name": "Tiger Lily Restaurant",
    "address": "169 Thornbury Road Osterley TW7 4QG",
    "data_source": "hounslow.gov.uk/publictoilets 20/03/2022",
    "latitude": 51.4829375,
    "longitude": -0.3479086,
    "borough": "Hounslow"
  },
  {
    "name": "Park Caf&#195;&#169;",
    "address": "163 Thornbury Road Osterley TW7 4QG",
    "data_source": "hounslow.gov.uk/publictoilets 20/03/2022",
    "latitude": 51.4828237,
    "longitude": -0.3476518,
    "borough": "Hounslow"
  },
  {
    "name": "William Hill",
    "address": "491c London Road Isleworth TW7 4DA",
    "data_source": "hounslow.gov.uk/publictoilets 20/03/2022",
    "latitude": 51.4750074,
    "longitude": -0.3393893,
    "borough": "Hounslow"
  },
  {
    "name": "Coral",
    "address": "469 London Road Isleworth TW7 4BX",
    "data_source": "hounslow.gov.uk/publictoilets 20/03/2022",
    "latitude": 51.4749302,
    "longitude": -0.3418187,
    "borough": "Hounslow"
  },
  {
    "name": "St Mary&#39;s Church Hall",
    "address": "Osterley Road Isleworth TW7 4PW",
    "data_source": "hounslow.gov.uk/publictoilets 20/03/2022",
    "latitude": 51.4814225,
    "longitude": -0.344057,
    "borough": "Hounslow"
  },
  {
    "name": "Blenheim Centre",
    "address": "Prince Regent Road TW3 1NL",
    "data_source": "hounslow.gov.uk/publictoilets 20/03/2022",
    "latitude": 51.4702552,
    "longitude": -0.3589868,
    "borough": "Hounslow"
  },
  {
    "name": "Hounslow Shopmobility",
    "address": "Blenheim Centre Prince Regent Road TW3 1NL",
    "data_source": "hounslow.gov.uk/publictoilets 20/03/2022",
    "latitude": 51.4712141,
    "longitude": -0.3610629,
    "borough": "Hounslow"
  },
  {
    "name": "Gym",
    "address": "Blenheim Centre Prince Regent Road TW3 1NL",
    "data_source": "hounslow.gov.uk/publictoilets 20/03/2022",
    "latitude": 51.4712141,
    "longitude": -0.3610629,
    "borough": "Hounslow"
  },
  {
    "name": "Asda",
    "address": "Prince Regent Road TW3 1NL",
    "data_source": "hounslow.gov.uk/publictoilets 20/03/2022",
    "latitude": 51.4702552,
    "longitude": -0.3589868,
    "borough": "Hounslow"
  },
  {
    "name": "Osterley Park",
    "address": "Jersey Road Osterley TW7 4RB",
    "data_source": "hounslow.gov.uk/publictoilets 20/03/2022",
    "latitude": 51.4842725,
    "longitude": -0.3455123,
    "borough": "Hounslow"
  },
  {
    "name": "Computer Learning Centre",
    "address": "65 Kingsley Road TW3 1QB",
    "data_source": "hounslow.gov.uk/publictoilets 20/03/2022",
    "latitude": 51.4739331,
    "longitude": -0.357599,
    "borough": "Hounslow"
  },
  {
    "name": "Hounslow Conservative Club",
    "address": "Gresham Road TW3 4BX",
    "data_source": "hounslow.gov.uk/publictoilets 20/03/2022",
    "latitude": 51.4778463,
    "longitude": -0.3556125,
    "borough": "Hounslow"
  },
  {
    "name": "KFC",
    "address": "183-184 High Street TW3 1HL",
    "data_source": "hounslow.gov.uk/publictoilets 20/03/2022",
    "latitude": 51.4691398,
    "longitude": -0.3607997,
    "borough": "Hounslow"
  },
  {
    "name": "Subway",
    "address": "158 High Street TW3 1LR",
    "data_source": "hounslow.gov.uk/publictoilets 20/03/2022",
    "latitude": 51.4691398,
    "longitude": -0.3607997,
    "borough": "Hounslow"
  },
  {
    "name": "Holy Trinity Church",
    "address": "High Street TW3 1HG",
    "data_source": "hounslow.gov.uk/publictoilets 20/03/2022",
    "latitude": 51.4683299,
    "longitude": -0.3642807,
    "borough": "Hounslow"
  },
  {
    "name": "Montague Public Hall",
    "address": "Montague Road TW3 1LD",
    "data_source": "hounslow.gov.uk/publictoilets 20/03/2022",
    "latitude": 51.4698832,
    "longitude": -0.3650311,
    "borough": "Hounslow"
  },
  {
    "name": "McDonald&#39;s",
    "address": "200 High Street TW3 1HE",
    "data_source": "hounslow.gov.uk/publictoilets 20/03/2022",
    "latitude": 51.4691398,
    "longitude": -0.3607997,
    "borough": "Hounslow"
  },
  {
    "name": "T.K.Maxx",
    "address": "230-236 High Street TW3 1HB",
    "data_source": "hounslow.gov.uk/publictoilets 20/03/2022",
    "latitude": 51.4684173,
    "longitude": -0.365628,
    "borough": "Hounslow"
  },
  {
    "name": "Yates&#39;s",
    "address": "1-3 Bath Road TW3 3BJ",
    "data_source": "hounslow.gov.uk/publictoilets 20/03/2022",
    "latitude": 51.4737135,
    "longitude": -0.3887191,
    "borough": "Hounslow"
  },
  {
    "name": "Redlees Stables Gallery",
    "address": "Redlees Park Worton Road TW7 6DW",
    "data_source": "hounslow.gov.uk/publictoilets 20/03/2022",
    "latitude": 51.467292400000005,
    "longitude": -0.33204774782042934,
    "borough": "Hounslow"
  },
  {
    "name": "Redlees Stables Art Studio",
    "address": "Redlees Park Worton Road Isleworth TW7 6DW",
    "data_source": "hounslow.gov.uk/publictoilets 20/03/2022",
    "latitude": 51.467292400000005,
    "longitude": -0.33204774782042934,
    "borough": "Hounslow"
  },
  {
    "name": "Bridgelink Centre",
    "address": "Summerwood Road Isleworth TW7 7QU",
    "data_source": "hounslow.gov.uk/publictoilets 20/03/2022",
    "latitude": 51.4593065,
    "longitude": -0.3327107,
    "borough": "Hounslow"
  },
  {
    "name": "Hounslow Royal British Legion",
    "address": "37 Whitton Road TW3 2DB",
    "data_source": "hounslow.gov.uk/publictoilets 20/03/2022",
    "latitude": 51.464149,
    "longitude": -0.3627237,
    "borough": "Hounslow"
  },
  {
    "name": "Cross Lances",
    "address": "236 Hanworth Road TW3 3TU",
    "data_source": "hounslow.gov.uk/publictoilets 20/03/2022",
    "latitude": 51.4668596,
    "longitude": -0.3626409,
    "borough": "Hounslow"
  },
  {
    "name": "Inwood Park caf&#233;",
    "address": "103 Inwood Road,  TW3 1XG",
    "data_source": "hounslow.gov.uk/publictoilets 20/03/2022",
    "latitude": 51.4686772,
    "longitude": -0.3581456,
    "borough": "Hounslow"
  },
  {
    "name": "Fiat Parkside",
    "address": "106 Whitton Road TW3 2ES",
    "data_source": "hounslow.gov.uk/publictoilets 20/03/2022",
    "latitude": 51.4601419,
    "longitude": -0.3624218,
    "borough": "Hounslow"
  },
  {
    "name": "Heston Services M4 Eastbound",
    "address": "Junction 2-3 M4 TW5 9NA",
    "data_source": "hounslow.gov.uk/publictoilets 20/03/2022",
    "latitude": 51.487766807447315,
    "longitude": -0.39528476237604754,
    "borough": "Hounslow"
  },
  {
    "name": "Caffe Venezia",
    "address": "48 Lampton Road TW3 1JQ",
    "data_source": "hounslow.gov.uk/publictoilets 20/03/2022",
    "latitude": 51.4714087,
    "longitude": -0.3671679,
    "borough": "Hounslow"
  },
  {
    "name": "Heston Library",
    "address": "New Heston Road TW5 0LW",
    "data_source": "hounslow.gov.uk/publictoilets 20/03/2022",
    "latitude": 51.485085,
    "longitude": -0.377248,
    "borough": "Hounslow"
  },
  {
    "name": "Heston Village Hall",
    "address": "New Heston Road Heston TW5 0LW",
    "data_source": "hounslow.gov.uk/publictoilets 20/03/2022",
    "latitude": 51.485085,
    "longitude": -0.377248,
    "borough": "Hounslow"
  },
  {
    "name": "Rose and Crown",
    "address": "220 Heston Road Heston TW5 0RH",
    "data_source": "hounslow.gov.uk/publictoilets 20/03/2022",
    "latitude": 51.4850897,
    "longitude": -0.3731231,
    "borough": "Hounslow"
  },
  {
    "name": "Honeycombe",
    "address": "417 Staines Road TW4 5AR",
    "data_source": "hounslow.gov.uk/publictoilets 20/03/2022",
    "latitude": 51.4639569,
    "longitude": -0.3848138,
    "borough": "Hounslow"
  },
  {
    "name": "Il Bebo&#39;s",
    "address": "62 Staines Road TW3 3LZ",
    "data_source": "hounslow.gov.uk/publictoilets 20/03/2022",
    "latitude": 51.4670795,
    "longitude": -0.3682375750900856,
    "borough": "Hounslow"
  }
]