[
  {
    "name": "Acton Town",
    "baby_change": false,
    "wheelchair": true,
    "address": "Acton Town ",
    "fee": "Paid",
    "latitude": 51.503057,
    "longitude": -0.280462,
    "borough": "Ealing"
  },
  {
    "name": "Alperton",
    "baby_change": false,
    "wheelchair": false,
    "address": "Alperton ",
    "fee": "Paid",
    "latitude": 51.540627,
    "longitude": -0.29961,
    "borough": "Brent"
  },
  {
    "name": "Amersham",
    "baby_change": false,
    "wheelchair": false,
    "address": "Amersham ",
    "fee": "",
    "latitude": 51.674207,
    "longitude": -0.60759,
    "borough": "Other"
  },
  {
    "name": "Baker Street",
    "baby_change": true,
    "wheelchair": false,
    "address": "Baker Street ",
    "fee": "",
    "latitude": 51.522883,
    "longitude": -0.15713,
    "borough": "Westminster"
  },
  {
    "name": "Bank",
    "baby_change": false,
    "wheelchair": false,
    "address": "Bank Located in subway",
    "fee": "Paid",
    "latitude": 51.513395,
    "longitude": -0.089095,
    "borough": "City of London"
  },
  {
    "name": "Barking",
    "baby_change": true,
    "wheelchair": true,
    "address": "Barking Located in walkway, inside gateline",
    "fee": "",
    "latitude": 51.539413,
    "longitude": 0.080988,
    "borough": "Barking and Dagenham"
  },
  {
    "name": "Barkingside",
    "baby_change": false,
    "wheelchair": false,
    "address": "Barkingside ",
    "fee": "",
    "latitude": 51.585689,
    "longitude": 0.088585,
    "borough": "Redbridge"
  },
  {
    "name": "Barons Court",
    "baby_change": false,
    "wheelchair": false,
    "address": "Barons Court ",
    "fee": "Paid",
    "latitude": 51.490311,
    "longitude": -0.213427,
    "borough": "Hammersmith and Fulham"
  },
  {
    "name": "Beckenham Junction",
    "baby_change": false,
    "wheelchair": true,
    "address": "Beckenham Junction Located in National Rail station",
    "fee": "",
    "latitude": 51.411175,
    "longitude": -0.026016,
    "borough": "Bromley"
  },
  {
    "name": "Becontree",
    "baby_change": false,
    "wheelchair": false,
    "address": "Becontree ",
    "fee": "",
    "latitude": 51.540331,
    "longitude": 0.127016,
    "borough": "Barking and Dagenham"
  },
  {
    "name": "Blackfriars",
    "baby_change": true,
    "wheelchair": true,
    "address": "Blackfriars Located in National Rail station",
    "fee": "Paid",
    "latitude": 51.509613,
    "longitude": -0.104166,
    "borough": "City of London"
  },
  {
    "name": "Boston Manor",
    "baby_change": false,
    "wheelchair": false,
    "address": "Boston Manor ",
    "fee": "Paid",
    "latitude": 51.495635,
    "longitude": -0.324939,
    "borough": "Hounslow"
  },
  {
    "name": "Brentwood",
    "baby_change": true,
    "wheelchair": true,
    "address": "Brentwood ",
    "fee": "",
    "latitude": 51.613605,
    "longitude": 0.299586,
    "borough": "Brent"
  },
  {
    "name": "Buckhurst Hill",
    "baby_change": false,
    "wheelchair": false,
    "address": "Buckhurst Hill ",
    "fee": "",
    "latitude": 51.626605,
    "longitude": 0.046757,
    "borough": "Other"
  },
  {
    "name": "Burnham",
    "baby_change": true,
    "wheelchair": true,
    "address": "Burnham Located on platform 2",
    "fee": "",
    "latitude": 51.523506,
    "longitude": -0.646374,
    "borough": "Other"
  },
  {
    "name": "Bush Hill Park",
    "baby_change": true,
    "wheelchair": true,
    "address": "Bush Hill Park ",
    "fee": "",
    "latitude": 51.641519,
    "longitude": -0.069221,
    "borough": "Enfield"
  },
  {
    "name": "Canary Wharf",
    "baby_change": false,
    "wheelchair": true,
    "address": "Canary Wharf ",
    "fee": "",
    "latitude": 51.503734,
    "longitude": -0.019121,
    "borough": "Tower Hamlets"
  },
  {
    "name": "Canning Town",
    "baby_change": false,
    "wheelchair": true,
    "address": "Canning Town Located in bus station",
    "fee": "",
    "latitude": 51.514029,
    "longitude": 0.008025,
    "borough": "Newham"
  },
  {
    "name": "Cannon Street",
    "baby_change": true,
    "wheelchair": true,
    "address": "Cannon Street Located in National Rail station",
    "fee": "",
    "latitude": 51.511451,
    "longitude": -0.090357,
    "borough": "City of London"
  },
  {
    "name": "Canons Park",
    "baby_change": true,
    "wheelchair": true,
    "address": "Canons Park ",
    "fee": "",
    "latitude": 51.607701,
    "longitude": -0.294693,
    "borough": "Harrow"
  },
  {
    "name": "Chadwell Heath",
    "baby_change": false,
    "wheelchair": true,
    "address": "Chadwell Heath Located in Booking Hall",
    "fee": "",
    "latitude": 51.568039,
    "longitude": 0.128958,
    "borough": "Redbridge"
  },
  {
    "name": "Chalfont & Latimer",
    "baby_change": false,
    "wheelchair": false,
    "address": "Chalfont & Latimer ",
    "fee": "",
    "latitude": 51.668109,
    "longitude": -0.560519,
    "borough": "Other"
  },
  {
    "name": "Charing Cross",
    "baby_change": false,
    "wheelchair": true,
    "address": "Charing Cross Located in National Rail station",
    "fee": "",
    "latitude": 51.507819,
    "longitude": -0.126137,
    "borough": "Westminster"
  },
  {
    "name": "Chesham",
    "baby_change": false,
    "wheelchair": false,
    "address": "Chesham ",
    "fee": "",
    "latitude": 51.705208,
    "longitude": -0.611247,
    "borough": "Other"
  },
  {
    "name": "Cheshunt",
    "baby_change": false,
    "wheelchair": true,
    "address": "Cheshunt Located in ticket hall",
    "fee": "",
    "latitude": 51.702876,
    "longitude": -0.02396,
    "borough": "Other"
  },
  {
    "name": "Chigwell",
    "baby_change": false,
    "wheelchair": false,
    "address": "Chigwell ",
    "fee": "",
    "latitude": 51.617916,
    "longitude": 0.075041,
    "borough": "Other"
  },
  {
    "name": "Chingford",
    "baby_change": true,
    "wheelchair": true,
    "address": "Chingford ",
    "fee": "",
    "latitude": 51.633087,
    "longitude": 0.009897,
    "borough": "Waltham Forest"
  },
  {
    "name": "Chorleywood",
    "baby_change": false,
    "wheelchair": true,
    "address": "Chorleywood ",
    "fee": "",
    "latitude": 51.654249,
    "longitude": -0.518312,
    "borough": "Other"
  },
  {
    "name": "Clapham Junction",
    "baby_change": true,
    "wheelchair": true,
    "address": "Clapham Junction Located in Brighton Yard ticket hall",
    "fee": "Paid",
    "latitude": 51.463724,
    "longitude": -0.168997,
    "borough": "Wandsworth"
  },
  {
    "name": "Cockfosters",
    "baby_change": false,
    "wheelchair": false,
    "address": "Cockfosters ",
    "fee": "Paid",
    "latitude": 51.65152,
    "longitude": -0.149171,
    "borough": "Enfield"
  },
  {
    "name": "Croxley",
    "baby_change": false,
    "wheelchair": false,
    "address": "Croxley ",
    "fee": "",
    "latitude": 51.647044,
    "longitude": -0.441718,
    "borough": "Other"
  },
  {
    "name": "Crystal Palace",
    "baby_change": true,
    "wheelchair": true,
    "address": "Crystal Palace ",
    "fee": "",
    "latitude": 51.418111,
    "longitude": -0.072605,
    "borough": "Bromley"
  },
  {
    "name": "Dagenham East",
    "baby_change": false,
    "wheelchair": false,
    "address": "Dagenham East ",
    "fee": "",
    "latitude": 51.544096,
    "longitude": 0.166017,
    "borough": "Barking and Dagenham"
  },
  {
    "name": "Dagenham Heathway",
    "baby_change": false,
    "wheelchair": true,
    "address": "Dagenham Heathway ",
    "fee": "",
    "latitude": 51.541639,
    "longitude": 0.147527,
    "borough": "Barking and Dagenham"
  },
  {
    "name": "Dalston Junction",
    "baby_change": false,
    "wheelchair": true,
    "address": "Dalston Junction ",
    "fee": "",
    "latitude": 51.546116,
    "longitude": -0.075137,
    "borough": "Hackney"
  },
  {
    "name": "Debden",
    "baby_change": false,
    "wheelchair": false,
    "address": "Debden ",
    "fee": "",
    "latitude": 51.645386,
    "longitude": 0.083782,
    "borough": "Other"
  },
  {
    "name": "Denmark Hill",
    "baby_change": false,
    "wheelchair": true,
    "address": "Denmark Hill Located behind ticket office",
    "fee": "",
    "latitude": 51.468203,
    "longitude": -0.089361,
    "borough": "Southwark"
  },
  {
    "name": "Dollis Hill",
    "baby_change": true,
    "wheelchair": true,
    "address": "Dollis Hill ",
    "fee": "",
    "latitude": 51.551955,
    "longitude": -0.239068,
    "borough": "Brent"
  },
  {
    "name": "Ealing Broadway",
    "baby_change": true,
    "wheelchair": true,
    "address": "Ealing Broadway Located in National Rail station",
    "fee": "",
    "latitude": 51.514993,
    "longitude": -0.302131,
    "borough": "Ealing"
  },
  {
    "name": "Ealing Common",
    "baby_change": false,
    "wheelchair": false,
    "address": "Ealing Common ",
    "fee": "Paid",
    "latitude": 51.51014,
    "longitude": -0.288265,
    "borough": "Ealing"
  },
  {
    "name": "Earl's Court",
    "baby_change": false,
    "wheelchair": true,
    "address": "Earl's Court Located on the right hand side as you exit the gateline",
    "fee": "",
    "latitude": 51.492063,
    "longitude": -0.193378,
    "borough": "Kensington and Chelsea"
  },
  {
    "name": "Eastcote",
    "baby_change": false,
    "wheelchair": false,
    "address": "Eastcote ",
    "fee": "",
    "latitude": 51.576506,
    "longitude": -0.397373,
    "borough": "Hillingdon"
  },
  {
    "name": "Elmers End",
    "baby_change": false,
    "wheelchair": false,
    "address": "Elmers End Located in National Rail station",
    "fee": "",
    "latitude": 51.398302,
    "longitude": -0.049429,
    "borough": "Bromley"
  },
  {
    "name": "Elm Park",
    "baby_change": false,
    "wheelchair": true,
    "address": "Elm Park ",
    "fee": "",
    "latitude": 51.549775,
    "longitude": 0.19864,
    "borough": "Havering"
  },
  {
    "name": "Enfield Town",
    "baby_change": true,
    "wheelchair": true,
    "address": "Enfield Town ",
    "fee": "",
    "latitude": 51.652026,
    "longitude": -0.079328,
    "borough": "Enfield"
  },
  {
    "name": "Epping",
    "baby_change": true,
    "wheelchair": true,
    "address": "Epping ",
    "fee": "",
    "latitude": 51.69368,
    "longitude": 0.113767,
    "borough": "Other"
  },
  {
    "name": "Euston",
    "baby_change": true,
    "wheelchair": true,
    "address": "Euston Located in National Rail station",
    "fee": "",
    "latitude": 51.527365,
    "longitude": -0.132754,
    "borough": "Camden"
  },
  {
    "name": "Fairlop",
    "baby_change": false,
    "wheelchair": false,
    "address": "Fairlop ",
    "fee": "",
    "latitude": 51.595618,
    "longitude": 0.091004,
    "borough": "Redbridge"
  },
  {
    "name": "Finchley Central",
    "baby_change": false,
    "wheelchair": true,
    "address": "Finchley Central ",
    "fee": "",
    "latitude": 51.600921,
    "longitude": -0.192527,
    "borough": "Barnet"
  },
  {
    "name": "Finchley Road",
    "baby_change": true,
    "wheelchair": false,
    "address": "Finchley Road ",
    "fee": "",
    "latitude": 51.550266,
    "longitude": -0.183141,
    "borough": "Camden"
  },
  {
    "name": "Forest Gate",
    "baby_change": false,
    "wheelchair": true,
    "address": "Forest Gate Located in booking hall",
    "fee": "",
    "latitude": 51.549432,
    "longitude": 0.024353,
    "borough": "Newham"
  },
  {
    "name": "Golders Green",
    "baby_change": true,
    "wheelchair": true,
    "address": "Golders Green Located in bus station",
    "fee": "",
    "latitude": 51.572259,
    "longitude": -0.194039,
    "borough": "Barnet"
  },
  {
    "name": "Goodmayes",
    "baby_change": false,
    "wheelchair": true,
    "address": "Goodmayes Located in booking Hall",
    "fee": "",
    "latitude": 51.565579,
    "longitude": 0.110807,
    "borough": "Redbridge"
  },
  {
    "name": "Gospel Oak",
    "baby_change": true,
    "wheelchair": true,
    "address": "Gospel Oak ",
    "fee": "",
    "latitude": 51.555335,
    "longitude": -0.15077,
    "borough": "Camden"
  },
  {
    "name": "Grange Hill",
    "baby_change": false,
    "wheelchair": false,
    "address": "Grange Hill ",
    "fee": "",
    "latitude": 51.613378,
    "longitude": 0.092066,
    "borough": "Other"
  },
  {
    "name": "Gidea Park",
    "baby_change": false,
    "wheelchair": true,
    "address": "Gidea Park Located on platforms 3 & 4",
    "fee": "",
    "latitude": 51.581904,
    "longitude": 0.205964,
    "borough": "Havering"
  },
  {
    "name": "Green Park",
    "baby_change": false,
    "wheelchair": false,
    "address": "Green Park Located in subway",
    "fee": "Paid",
    "latitude": 51.506947,
    "longitude": -0.142787,
    "borough": "Westminster"
  },
  {
    "name": "Haggerston",
    "baby_change": false,
    "wheelchair": true,
    "address": "Haggerston ",
    "fee": "",
    "latitude": 51.538705,
    "longitude": -0.075666,
    "borough": "Hackney"
  },
  {
    "name": "Hainault",
    "baby_change": false,
    "wheelchair": true,
    "address": "Hainault ",
    "fee": "",
    "latitude": 51.603659,
    "longitude": 0.093482,
    "borough": "Redbridge"
  },
  {
    "name": "Hammersmith",
    "baby_change": true,
    "wheelchair": true,
    "address": "Hammersmith Located in shopping centre",
    "fee": "Paid",
    "latitude": 51.492304,
    "longitude": -0.223619,
    "borough": "Hammersmith and Fulham"
  },
  {
    "name": "Hanger Lane",
    "baby_change": false,
    "wheelchair": false,
    "address": "Hanger Lane ",
    "fee": "",
    "latitude": 51.530177,
    "longitude": -0.292704,
    "borough": "Ealing"
  },
  {
    "name": "Hanwell",
    "baby_change": false,
    "wheelchair": false,
    "address": "Hanwell Located on platform 3",
    "fee": "",
    "latitude": 51.511835,
    "longitude": -0.338583,
    "borough": "Ealing"
  },
  {
    "name": "Harold Wood",
    "baby_change": false,
    "wheelchair": true,
    "address": "Harold Wood ",
    "fee": "",
    "latitude": 51.592766,
    "longitude": 0.233129,
    "borough": "Havering"
  },
  {
    "name": "Harrow & Wealdstone",
    "baby_change": false,
    "wheelchair": true,
    "address": "Harrow & Wealdstone ",
    "fee": "",
    "latitude": 51.592216,
    "longitude": -0.334896,
    "borough": "Harrow"
  },
  {
    "name": "Harrow-on-the-Hill",
    "baby_change": false,
    "wheelchair": false,
    "address": "Harrow-on-the-Hill ",
    "fee": "",
    "latitude": 51.579197,
    "longitude": -0.337226,
    "borough": "Harrow"
  },
  {
    "name": "Hatton Cross",
    "baby_change": false,
    "wheelchair": true,
    "address": "Hatton Cross ",
    "fee": "",
    "latitude": 51.466747,
    "longitude": -0.423191,
    "borough": "Hillingdon"
  },
  {
    "name": "Hayes & Harlington",
    "baby_change": false,
    "wheelchair": true,
    "address": "Hayes & Harlington ",
    "fee": "",
    "latitude": 51.503096,
    "longitude": -0.420683,
    "borough": "Hillingdon"
  },
  {
    "name": "Heathrow Terminals 2 & 3",
    "baby_change": true,
    "wheelchair": true,
    "address": "Heathrow Terminals 2 & 3 Located at street level",
    "fee": "",
    "latitude": 51.471618,
    "longitude": -0.454037,
    "borough": "Hillingdon"
  },
  {
    "name": "Heathrow Terminal 4",
    "baby_change": false,
    "wheelchair": true,
    "address": "Heathrow Terminal 4 ",
    "fee": "",
    "latitude": 51.459039,
    "longitude": -0.446646,
    "borough": "Hillingdon"
  },
  {
    "name": "Heathrow Terminal 5",
    "baby_change": true,
    "wheelchair": true,
    "address": "Heathrow Terminal 5 Located on lower concourse",
    "fee": "",
    "latitude": 51.470052,
    "longitude": -0.49056,
    "borough": "Hillingdon"
  },
  {
    "name": "Hendon Central",
    "baby_change": false,
    "wheelchair": true,
    "address": "Hendon Central ",
    "fee": "",
    "latitude": 51.583301,
    "longitude": -0.226424,
    "borough": "Barnet"
  },
  {
    "name": "High Barnet",
    "baby_change": false,
    "wheelchair": true,
    "address": "High Barnet ",
    "fee": "",
    "latitude": 51.650541,
    "longitude": -0.194298,
    "borough": "Barnet"
  },
  {
    "name": "Hillingdon",
    "baby_change": false,
    "wheelchair": true,
    "address": "Hillingdon ",
    "fee": "",
    "latitude": 51.553715,
    "longitude": -0.449828,
    "borough": "Hillingdon"
  },
  {
    "name": "Hornchurch",
    "baby_change": false,
    "wheelchair": false,
    "address": "Hornchurch ",
    "fee": "",
    "latitude": 51.554093,
    "longitude": 0.219116,
    "borough": "Havering"
  },
  {
    "name": "Hounslow Central",
    "baby_change": false,
    "wheelchair": false,
    "address": "Hounslow Central ",
    "fee": "",
    "latitude": 51.471295,
    "longitude": -0.366578,
    "borough": "Hounslow"
  },
  {
    "name": "Hounslow East",
    "baby_change": true,
    "wheelchair": true,
    "address": "Hounslow East ",
    "fee": "",
    "latitude": 51.473213,
    "longitude": -0.356474,
    "borough": "Hounslow"
  },
  {
    "name": "Hoxton",
    "baby_change": false,
    "wheelchair": true,
    "address": "Hoxton ",
    "fee": "",
    "latitude": 51.531512,
    "longitude": -0.075681,
    "borough": "Hackney"
  },
  {
    "name": "Ilford",
    "baby_change": true,
    "wheelchair": false,
    "address": "Ilford ",
    "fee": "",
    "latitude": 51.559118,
    "longitude": 0.06968,
    "borough": "Redbridge"
  },
  {
    "name": "Kensington (Olympia)",
    "baby_change": true,
    "wheelchair": true,
    "address": "Kensington (Olympia) ",
    "fee": "",
    "latitude": 51.496156,
    "longitude": -0.210502,
    "borough": "Hammersmith and Fulham"
  },
  {
    "name": "Kew Gardens",
    "baby_change": false,
    "wheelchair": false,
    "address": "Kew Gardens ",
    "fee": "",
    "latitude": 51.477069,
    "longitude": -0.285148,
    "borough": "Richmond upon Thames"
  },
  {
    "name": "Kilburn",
    "baby_change": true,
    "wheelchair": true,
    "address": "Kilburn ",
    "fee": "",
    "latitude": 51.537277,
    "longitude": -0.192237,
    "borough": "Camden"
  },
  {
    "name": "Kingsbury",
    "baby_change": true,
    "wheelchair": true,
    "address": "Kingsbury ",
    "fee": "",
    "latitude": 51.584845,
    "longitude": -0.27879,
    "borough": "Brent"
  },
  {
    "name": "King's Cross St Pancras",
    "baby_change": false,
    "wheelchair": true,
    "address": "King's Cross St Pancras Located in King's Cross National Rail station",
    "fee": "",
    "latitude": 51.531683,
    "longitude": -0.123538,
    "borough": "Camden"
  },
  {
    "name": "Langley",
    "baby_change": false,
    "wheelchair": true,
    "address": "Langley Located outside station entrance",
    "fee": "",
    "latitude": 51.508062,
    "longitude": -0.541756,
    "borough": "Other"
  },
  {
    "name": "Lewisham",
    "baby_change": false,
    "wheelchair": true,
    "address": "Lewisham Located in National Rail station",
    "fee": "",
    "latitude": 51.465081,
    "longitude": -0.013016,
    "borough": "Lewisham"
  },
  {
    "name": "Leyton",
    "baby_change": false,
    "wheelchair": false,
    "address": "Leyton ",
    "fee": "",
    "latitude": 51.569725,
    "longitude": -0.008051,
    "borough": "Waltham Forest"
  },
  {
    "name": "Leytonstone",
    "baby_change": false,
    "wheelchair": false,
    "address": "Leytonstone ",
    "fee": "",
    "latitude": 51.563554,
    "longitude": 0.008416,
    "borough": "Waltham Forest"
  },
  {
    "name": "Liverpool Street",
    "baby_change": true,
    "wheelchair": true,
    "address": "Liverpool Street Located in National Rail station",
    "fee": "",
    "latitude": 51.51794,
    "longitude": -0.083162,
    "borough": "City of London"
  },
  {
    "name": "London Bridge",
    "baby_change": false,
    "wheelchair": true,
    "address": "London Bridge Located in National Rail station",
    "fee": "",
    "latitude": 51.505881,
    "longitude": -0.086807,
    "borough": "Southwark"
  },
  {
    "name": "Loughton",
    "baby_change": false,
    "wheelchair": false,
    "address": "Loughton ",
    "fee": "",
    "latitude": 51.641443,
    "longitude": 0.055476,
    "borough": "Other"
  },
  {
    "name": "Maidenhead",
    "baby_change": true,
    "wheelchair": true,
    "address": "Maidenhead Located on platform 4",
    "fee": "",
    "latitude": 51.518669,
    "longitude": -0.72266,
    "borough": "Other"
  },
  {
    "name": "Marylebone",
    "baby_change": false,
    "wheelchair": false,
    "address": "Marylebone Located in National Rail station",
    "fee": "Paid",
    "latitude": 51.521602,
    "longitude": -0.163013,
    "borough": "Westminster"
  },
  {
    "name": "Mitcham Junction",
    "baby_change": false,
    "wheelchair": true,
    "address": "Mitcham Junction Located in National Rail station",
    "fee": "",
    "latitude": 51.393147,
    "longitude": -0.158738,
    "borough": "Merton"
  },
  {
    "name": "Monument",
    "baby_change": false,
    "wheelchair": false,
    "address": "Monument ",
    "fee": "",
    "latitude": 51.5107,
    "longitude": -0.085969,
    "borough": "City of London"
  },
  {
    "name": "Moor Park",
    "baby_change": false,
    "wheelchair": false,
    "address": "Moor Park ",
    "fee": "",
    "latitude": 51.629845,
    "longitude": -0.432454,
    "borough": "Other"
  },
  {
    "name": "New Cross",
    "baby_change": false,
    "wheelchair": true,
    "address": "New Cross Located on platform C",
    "fee": "",
    "latitude": 51.476347,
    "longitude": -0.032427,
    "borough": "Lewisham"
  },
  {
    "name": "Newbury Park",
    "baby_change": false,
    "wheelchair": false,
    "address": "Newbury Park ",
    "fee": "",
    "latitude": 51.575726,
    "longitude": 0.090004,
    "borough": "Redbridge"
  },
  {
    "name": "North Ealing",
    "baby_change": false,
    "wheelchair": false,
    "address": "North Ealing ",
    "fee": "",
    "latitude": 51.517505,
    "longitude": -0.288868,
    "borough": "Ealing"
  },
  {
    "name": "Northfields",
    "baby_change": false,
    "wheelchair": false,
    "address": "Northfields ",
    "fee": "Paid",
    "latitude": 51.499319,
    "longitude": -0.314719,
    "borough": "Ealing"
  },
  {
    "name": "North Greenwich",
    "baby_change": true,
    "wheelchair": true,
    "address": "North Greenwich ",
    "fee": "",
    "latitude": 51.500474,
    "longitude": 0.004295,
    "borough": "Greenwich"
  },
  {
    "name": "North Harrow",
    "baby_change": false,
    "wheelchair": false,
    "address": "North Harrow ",
    "fee": "",
    "latitude": 51.584872,
    "longitude": -0.362408,
    "borough": "Harrow"
  },
  {
    "name": "Northolt",
    "baby_change": false,
    "wheelchair": false,
    "address": "Northolt ",
    "fee": "",
    "latitude": 51.548236,
    "longitude": -0.368699,
    "borough": "Ealing"
  },
  {
    "name": "Northwick Park",
    "baby_change": false,
    "wheelchair": false,
    "address": "Northwick Park ",
    "fee": "",
    "latitude": 51.578481,
    "longitude": -0.318056,
    "borough": "Brent"
  },
  {
    "name": "Northwood",
    "baby_change": false,
    "wheelchair": false,
    "address": "Northwood ",
    "fee": "",
    "latitude": 51.611053,
    "longitude": -0.423829,
    "borough": "Hillingdon"
  },
  {
    "name": "Northwood Hills",
    "baby_change": false,
    "wheelchair": false,
    "address": "Northwood Hills ",
    "fee": "",
    "latitude": 51.600572,
    "longitude": -0.409464,
    "borough": "Hillingdon"
  },
  {
    "name": "Norwood Junction",
    "baby_change": true,
    "wheelchair": true,
    "address": "Norwood Junction ",
    "fee": "",
    "latitude": 51.39702,
    "longitude": -0.075216,
    "borough": "Croydon"
  },
  {
    "name": "Oakwood",
    "baby_change": false,
    "wheelchair": false,
    "address": "Oakwood ",
    "fee": "Paid",
    "latitude": 51.647726,
    "longitude": -0.132182,
    "borough": "Enfield"
  },
  {
    "name": "Old Street",
    "baby_change": false,
    "wheelchair": true,
    "address": "Old Street Located in subway",
    "fee": "",
    "latitude": 51.526065,
    "longitude": -0.088193,
    "borough": "Islington"
  },
  {
    "name": "Osterley",
    "baby_change": false,
    "wheelchair": false,
    "address": "Osterley ",
    "fee": "Paid",
    "latitude": 51.481274,
    "longitude": -0.352224,
    "borough": "Hounslow"
  },
  {
    "name": "Paddington",
    "baby_change": true,
    "wheelchair": true,
    "address": "Paddington Located in National Rail station",
    "fee": "",
    "latitude": 51.516981,
    "longitude": -0.17616,
    "borough": "Westminster"
  },
  {
    "name": "Park Royal",
    "baby_change": false,
    "wheelchair": false,
    "address": "Park Royal ",
    "fee": "",
    "latitude": 51.527123,
    "longitude": -0.284341,
    "borough": "Ealing"
  },
  {
    "name": "Penge West",
    "baby_change": true,
    "wheelchair": true,
    "address": "Penge West ",
    "fee": "",
    "latitude": 51.417555,
    "longitude": -0.06084,
    "borough": "Bromley"
  },
  {
    "name": "Perivale",
    "baby_change": false,
    "wheelchair": false,
    "address": "Perivale ",
    "fee": "",
    "latitude": 51.536717,
    "longitude": -0.323446,
    "borough": "Ealing"
  },
  {
    "name": "Piccadilly Circus",
    "baby_change": false,
    "wheelchair": false,
    "address": "Piccadilly Circus Located in subway",
    "fee": "Paid",
    "latitude": 51.51005,
    "longitude": -0.133798,
    "borough": "Westminster"
  },
  {
    "name": "Pinner",
    "baby_change": false,
    "wheelchair": true,
    "address": "Pinner ",
    "fee": "",
    "latitude": 51.592901,
    "longitude": -0.381161,
    "borough": "Harrow"
  },
  {
    "name": "Preston Road",
    "baby_change": false,
    "wheelchair": false,
    "address": "Preston Road ",
    "fee": "",
    "latitude": 51.571972,
    "longitude": -0.295107,
    "borough": "Brent"
  },
  {
    "name": "Queensbury",
    "baby_change": true,
    "wheelchair": true,
    "address": "Queensbury ",
    "fee": "",
    "latitude": 51.594188,
    "longitude": -0.286219,
    "borough": "Brent"
  },
  {
    "name": "Rayners Lane",
    "baby_change": false,
    "wheelchair": false,
    "address": "Rayners Lane ",
    "fee": "",
    "latitude": 51.575147,
    "longitude": -0.371127,
    "borough": "Harrow"
  },
  {
    "name": "Redbridge",
    "baby_change": false,
    "wheelchair": false,
    "address": "Redbridge ",
    "fee": "",
    "latitude": 51.576243,
    "longitude": 0.04536,
    "borough": "Redbridge"
  },
  {
    "name": "Reading",
    "baby_change": true,
    "wheelchair": true,
    "address": "Reading ",
    "fee": "",
    "latitude": 51.458786,
    "longitude": -0.971863,
    "borough": "Other"
  },
  {
    "name": "Richmond",
    "baby_change": true,
    "wheelchair": true,
    "address": "Richmond Located on lower concourse",
    "fee": "Paid",
    "latitude": 51.463152,
    "longitude": -0.301448,
    "borough": "Richmond upon Thames"
  },
  {
    "name": "Rickmansworth",
    "baby_change": false,
    "wheelchair": false,
    "address": "Rickmansworth ",
    "fee": "",
    "latitude": 51.640247,
    "longitude": -0.473273,
    "borough": "Other"
  },
  {
    "name": "Roding Valley",
    "baby_change": false,
    "wheelchair": false,
    "address": "Roding Valley ",
    "fee": "",
    "latitude": 51.617199,
    "longitude": 0.043647,
    "borough": "Redbridge"
  },
  {
    "name": "Romford",
    "baby_change": false,
    "wheelchair": true,
    "address": "Romford ",
    "fee": "",
    "latitude": 51.574829,
    "longitude": 0.183237,
    "borough": "Havering"
  },
  {
    "name": "Ruislip",
    "baby_change": false,
    "wheelchair": false,
    "address": "Ruislip ",
    "fee": "",
    "latitude": 51.556893,
    "longitude": -0.399076,
    "borough": "Hillingdon"
  },
  {
    "name": "Ruislip Gardens",
    "baby_change": false,
    "wheelchair": true,
    "address": "Ruislip Gardens ",
    "fee": "",
    "latitude": 51.560736,
    "longitude": -0.41071,
    "borough": "Hillingdon"
  },
  {
    "name": "Ruislip Manor",
    "baby_change": false,
    "wheelchair": true,
    "address": "Ruislip Manor ",
    "fee": "",
    "latitude": 51.573202,
    "longitude": -0.412973,
    "borough": "Hillingdon"
  },
  {
    "name": "St John's Wood",
    "baby_change": true,
    "wheelchair": true,
    "address": "St John's Wood ",
    "fee": "",
    "latitude": 51.534521,
    "longitude": -0.173948,
    "borough": "Westminster"
  },
  {
    "name": "Seven Kings",
    "baby_change": false,
    "wheelchair": true,
    "address": "Seven Kings Located on Footbridge",
    "fee": "",
    "latitude": 51.564026,
    "longitude": 0.0971,
    "borough": "Redbridge"
  },
  {
    "name": "Seven Sisters",
    "baby_change": false,
    "wheelchair": false,
    "address": "Seven Sisters ",
    "fee": "",
    "latitude": 51.582931,
    "longitude": -0.073306,
    "borough": "Haringey"
  },
  {
    "name": "Shenfield",
    "baby_change": false,
    "wheelchair": true,
    "address": "Shenfield ",
    "fee": "",
    "latitude": 51.630877,
    "longitude": 0.329851,
    "borough": "Brent"
  },
  {
    "name": "Shoreditch High Street",
    "baby_change": false,
    "wheelchair": true,
    "address": "Shoreditch High Street ",
    "fee": "",
    "latitude": 51.523375,
    "longitude": -0.075246,
    "borough": "Tower Hamlets"
  },
  {
    "name": "Slough",
    "baby_change": true,
    "wheelchair": true,
    "address": "Slough Located on platforms 1 & 5",
    "fee": "",
    "latitude": 51.51188,
    "longitude": -0.59151,
    "borough": "Other"
  },
  {
    "name": "Snaresbrook",
    "baby_change": false,
    "wheelchair": false,
    "address": "Snaresbrook ",
    "fee": "",
    "latitude": 51.580678,
    "longitude": 0.02144,
    "borough": "Redbridge"
  },
  {
    "name": "Southall",
    "baby_change": false,
    "wheelchair": false,
    "address": "Southall ",
    "fee": "",
    "latitude": 51.505957,
    "longitude": -0.37861,
    "borough": "Ealing"
  },
  {
    "name": "South Harrow",
    "baby_change": false,
    "wheelchair": true,
    "address": "South Harrow ",
    "fee": "Paid",
    "latitude": 51.564888,
    "longitude": -0.352492,
    "borough": "Harrow"
  },
  {
    "name": "South Ruislip",
    "baby_change": false,
    "wheelchair": true,
    "address": "South Ruislip ",
    "fee": "",
    "latitude": 51.556893,
    "longitude": -0.399076,
    "borough": "Hillingdon"
  },
  {
    "name": "South Woodford",
    "baby_change": false,
    "wheelchair": false,
    "address": "South Woodford ",
    "fee": "",
    "latitude": 51.591907,
    "longitude": 0.027338,
    "borough": "Redbridge"
  },
  {
    "name": "Stamford Brook",
    "baby_change": false,
    "wheelchair": false,
    "address": "Stamford Brook ",
    "fee": "",
    "latitude": 51.494917,
    "longitude": -0.245704,
    "borough": "Hounslow"
  },
  {
    "name": "Stanmore",
    "baby_change": false,
    "wheelchair": true,
    "address": "Stanmore ",
    "fee": "",
    "latitude": 51.619839,
    "longitude": -0.303266,
    "borough": "Harrow"
  },
  {
    "name": "Stratford",
    "baby_change": true,
    "wheelchair": true,
    "address": "Stratford ",
    "fee": "",
    "latitude": 51.541508,
    "longitude": -0.00241,
    "borough": "Newham"
  },
  {
    "name": "Stratford International",
    "baby_change": true,
    "wheelchair": true,
    "address": "Stratford International Located in National Rail station",
    "fee": "",
    "latitude": 51.544828,
    "longitude": -0.008778,
    "borough": "Newham"
  },
  {
    "name": "Sudbury Hill",
    "baby_change": false,
    "wheelchair": false,
    "address": "Sudbury Hill ",
    "fee": "Paid",
    "latitude": 51.558465,
    "longitude": -0.335803,
    "borough": "Harrow"
  },
  {
    "name": "Sudbury Town",
    "baby_change": false,
    "wheelchair": true,
    "address": "Sudbury Town ",
    "fee": "Paid",
    "latitude": 51.550815,
    "longitude": -0.315745,
    "borough": "Brent"
  },
  {
    "name": "Taplow",
    "baby_change": false,
    "wheelchair": true,
    "address": "Taplow Located on platform 4",
    "fee": "",
    "latitude": 51.523562,
    "longitude": -0.68137,
    "borough": "Other"
  },
  {
    "name": "Theydon Bois",
    "baby_change": false,
    "wheelchair": false,
    "address": "Theydon Bois ",
    "fee": "",
    "latitude": 51.671759,
    "longitude": 0.103085,
    "borough": "Other"
  },
  {
    "name": "Tottenham Hale",
    "baby_change": false,
    "wheelchair": false,
    "address": "Tottenham Hale Located on platform 2",
    "fee": "",
    "latitude": 51.588315,
    "longitude": -0.06024,
    "borough": "Haringey"
  },
  {
    "name": "Twyford",
    "baby_change": false,
    "wheelchair": true,
    "address": "Twyford Located on platform 4",
    "fee": "",
    "latitude": 51.475534,
    "longitude": -0.863293,
    "borough": "Other"
  },
  {
    "name": "Totteridge & Whetstone",
    "baby_change": false,
    "wheelchair": false,
    "address": "Totteridge & Whetstone ",
    "fee": "",
    "latitude": 51.630597,
    "longitude": -0.17921,
    "borough": "Barnet"
  },
  {
    "name": "Upminster",
    "baby_change": true,
    "wheelchair": true,
    "address": "Upminster Located on platform 1",
    "fee": "",
    "latitude": 51.558659,
    "longitude": 0.250855,
    "borough": "Havering"
  },
  {
    "name": "Upney",
    "baby_change": false,
    "wheelchair": false,
    "address": "Upney ",
    "fee": "",
    "latitude": 51.538372,
    "longitude": 0.10153,
    "borough": "Barking and Dagenham"
  },
  {
    "name": "Uxbridge",
    "baby_change": false,
    "wheelchair": true,
    "address": "Uxbridge ",
    "fee": "",
    "latitude": 51.546565,
    "longitude": -0.477949,
    "borough": "Hillingdon"
  },
  {
    "name": "Vauxhall",
    "baby_change": false,
    "wheelchair": false,
    "address": "Vauxhall Located in bus station",
    "fee": "",
    "latitude": 51.485739,
    "longitude": -0.123303,
    "borough": "Lambeth"
  },
  {
    "name": "Victoria",
    "baby_change": false,
    "wheelchair": true,
    "address": "Victoria Located in National Rail station",
    "fee": "",
    "latitude": 51.495812,
    "longitude": -0.143826,
    "borough": "Westminster"
  },
  {
    "name": "Waterloo",
    "baby_change": true,
    "wheelchair": true,
    "address": "Waterloo Located in National Rail station",
    "fee": "",
    "latitude": 51.504269,
    "longitude": -0.113356,
    "borough": "Lambeth"
  },
  {
    "name": "Watford",
    "baby_change": false,
    "wheelchair": false,
    "address": "Watford ",
    "fee": "",
    "latitude": 51.663908,
    "longitude": -0.395928,
    "borough": "Other"
  },
  {
    "name": "Watford Junction",
    "baby_change": true,
    "wheelchair": true,
    "address": "Watford Junction Located in waiting area on platform 6Located in ticket hall, ",
    "fee": "",
    "latitude": 51.663908,
    "longitude": -0.395928,
    "borough": "Other"
  },
  {
    "name": "Wembley Central",
    "baby_change": false,
    "wheelchair": true,
    "address": "Wembley Central ",
    "fee": "",
    "latitude": 51.55232,
    "longitude": -0.296642,
    "borough": "Brent"
  },
  {
    "name": "Wembley Park",
    "baby_change": false,
    "wheelchair": true,
    "address": "Wembley Park ",
    "fee": "",
    "latitude": 51.563198,
    "longitude": -0.279262,
    "borough": "Brent"
  },
  {
    "name": "West Acton",
    "baby_change": false,
    "wheelchair": false,
    "address": "West Acton ",
    "fee": "",
    "latitude": 51.518001,
    "longitude": -0.28098,
    "borough": "Ealing"
  },
  {
    "name": "West Drayton",
    "baby_change": false,
    "wheelchair": false,
    "address": "West Drayton Located on platform 4",
    "fee": "",
    "latitude": 51.510055,
    "longitude": -0.472234,
    "borough": "Hillingdon"
  },
  {
    "name": "West Finchley",
    "baby_change": false,
    "wheelchair": false,
    "address": "West Finchley ",
    "fee": "",
    "latitude": 51.609426,
    "longitude": -0.188362,
    "borough": "Barnet"
  },
  {
    "name": "West Hampstead",
    "baby_change": true,
    "wheelchair": true,
    "address": "West Hampstead ",
    "fee": "",
    "latitude": 51.547533,
    "longitude": -0.191357,
    "borough": "Camden"
  },
  {
    "name": "West Harrow",
    "baby_change": true,
    "wheelchair": true,
    "address": "West Harrow ",
    "fee": "",
    "latitude": 51.57971,
    "longitude": -0.3534,
    "borough": "Harrow"
  },
  {
    "name": "Westminster",
    "baby_change": false,
    "wheelchair": false,
    "address": "Westminster Located in subway",
    "fee": "Paid",
    "latitude": 51.501603,
    "longitude": -0.125984,
    "borough": "Westminster"
  },
  {
    "name": "White City",
    "baby_change": false,
    "wheelchair": false,
    "address": "White City ",
    "fee": "",
    "latitude": 51.511959,
    "longitude": -0.224297,
    "borough": "Hammersmith and Fulham"
  },
  {
    "name": "Willesden Green",
    "baby_change": false,
    "wheelchair": true,
    "address": "Willesden Green ",
    "fee": "",
    "latitude": 51.549146,
    "longitude": -0.221537,
    "borough": "Brent"
  },
  {
    "name": "Willesden Junction",
    "baby_change": true,
    "wheelchair": true,
    "address": "Willesden Junction ",
    "fee": "",
    "latitude": 51.532556,
    "longitude": -0.243006,
    "borough": "Brent"
  },
  {
    "name": "Wimbledon",
    "baby_change": true,
    "wheelchair": true,
    "address": "Wimbledon Located in National Rail station",
    "fee": "",
    "latitude": 51.421505,
    "longitude": -0.206444,
    "borough": "Merton"
  },
  {
    "name": "Woodford",
    "baby_change": false,
    "wheelchair": false,
    "address": "Woodford ",
    "fee": "",
    "latitude": 51.591907,
    "longitude": 0.027338,
    "borough": "Redbridge"
  },
  {
    "name": "Wood Lane",
    "baby_change": true,
    "wheelchair": true,
    "address": "Wood Lane ",
    "fee": "",
    "latitude": 51.509669,
    "longitude": -0.22453,
    "borough": "Hammersmith and Fulham"
  },
  {
    "name": "Woodside Park",
    "baby_change": false,
    "wheelchair": false,
    "address": "Woodside Park ",
    "fee": "",
    "latitude": 51.618014,
    "longitude": -0.18542,
    "borough": "Barnet"
  }
]