[
  {
    "name": "Public Toilet",
    "address": "Town Hall Customer Service Centre",
    "opening_hours": "Monday to Friday,8.30am to 5pm",
    "wheelchair": true,
    "baby_change": true,
    "data_source": "https://www.rbkc.gov.uk/environment/environmental-health/public-toilets",
    "borough": "Kensington and Chelsea",
    "latitude": 51.502731,
    "longitude": -0.194894
  },
  {
    "name": "Public Toilet",
    "address": "37 Pembroke Road",
    "opening_hours": "Monday to Sunday,24 hours",
    "wheelchair": false,
    "baby_change": false,
    "data_source": "https://www.rbkc.gov.uk/environment/environmental-health/public-toilets",
    "borough": "Kensington and Chelsea",
    "latitude": 51.494300,
    "longitude": -0.200915
  },
  {
    "name": "Public Toilet",
    "address": "Bevington Road",
    "opening_hours": "8.30am to 5pm",
    "wheelchair": false,
    "baby_change": false,
    "data_source": "https://www.rbkc.gov.uk/environment/environmental-health/public-toilets",
    "borough": "Kensington and Chelsea",
    "latitude": 51.521156,
    "longitude": -0.209160
  },
  {
    "name": "Public Toilet",
    "address": "Talbot Road",
    "opening_hours": "Friday and Saturday,8am to 6pm",
    "wheelchair": false,
    "baby_change": false,
    "data_source": "https://www.rbkc.gov.uk/environment/environmental-health/public-toilets",
    "borough": "Kensington and Chelsea",
    "latitude": 51.516051,
    "longitude": -0.204630
  },
  {
    "name": "Public Toilet",
    "address": "Westbourne Grove",
    "opening_hours": "Monday to\u00a0Friday,9am to 8pmSaturday,7am to 8pm",
    "wheelchair": true,
    "baby_change": true,
    "data_source": "https://www.rbkc.gov.uk/environment/environmental-health/public-toilets",
    "borough": "Kensington and Chelsea",
    "latitude": 51.514197,
    "longitude": -0.201325
  },
  {
    "name": "Public Toilet",
    "address": "Courtfield Road/next to Gloucester Road Tube Station",
    "opening_hours": "Monday to Sunday,24 hours",
    "wheelchair": true,
    "baby_change": false,
    "data_source": "https://www.rbkc.gov.uk/environment/environmental-health/public-toilets",
    "borough": "Kensington and Chelsea",
    "latitude": 51.494139,
    "longitude": -0.182558
  },
  {
    "name": "Public Toilet",
    "address": "Earl\u2019s Court Tube Station,\u00a0Earl\u2019s Court Road Entrance Side",
    "opening_hours": "Monday to Sunday,according to station opening hours",
    "wheelchair": true,
    "baby_change": false,
    "data_source": "https://www.rbkc.gov.uk/environment/environmental-health/public-toilets",
    "borough": "Kensington and Chelsea",
    "latitude": 51.492234,
    "longitude": -0.193372
  },
  {
    "name": "Public Toilet",
    "address": "Gloucester Road\u00a0outside Under Ground Station entrance",
    "opening_hours": "Monday to Sunday,24 hours",
    "wheelchair": false,
    "baby_change": false,
    "data_source": "https://www.rbkc.gov.uk/environment/environmental-health/public-toilets",
    "borough": "Kensington and Chelsea",
    "latitude": 51.494416,
    "longitude": -0.182529
  },
  {
    "name": "Public Toilet",
    "address": "Kensington Church Street\u00a0in a bus shelter close to number 30",
    "opening_hours": "Monday to Sunday,24 hours",
    "wheelchair": true,
    "baby_change": false,
    "data_source": "https://www.rbkc.gov.uk/environment/environmental-health/public-toilets",
    "borough": "Kensington and Chelsea",
    "latitude": 51.503651,
    "longitude": -0.191800
  },
  {
    "name": "Public Toilet",
    "address": "Kensington High Street\u00a0in a bus shelter close to the junction with Earl\u2019s Court Road",
    "opening_hours": "Monday to Sunday,24 hours",
    "wheelchair": true,
    "baby_change": false,
    "data_source": "https://www.rbkc.gov.uk/environment/environmental-health/public-toilets",
    "borough": "Kensington and Chelsea",
    "latitude": 51.498751,
    "longitude": -0.199338
  },
  {
    "name": "Public Toilet",
    "address": "Lonsdale Road\u00a0junction with Portobello Road",
    "opening_hours": "Monday to Sunday,24 hours",
    "wheelchair": true,
    "baby_change": false,
    "data_source": "https://www.rbkc.gov.uk/environment/environmental-health/public-toilets",
    "borough": "Kensington and Chelsea",
    "latitude": 51.514442,
    "longitude": -0.204156
  },
  {
    "name": "Public Toilet",
    "address": "Notting Hill Gate\u00a0in a Bus shelter close to McDonalds",
    "opening_hours": "Monday to Sunday24 hours",
    "wheelchair": true,
    "baby_change": false,
    "data_source": "https://www.rbkc.gov.uk/environment/environmental-health/public-toilets",
    "borough": "Kensington and Chelsea",
    "latitude": 51.508848,
    "longitude": -0.198350
  },
  {
    "name": "Public Toilet",
    "address": "Old Brompton Road\u00a0at the junction with Pelham Street",
    "opening_hours": "Monday to Sunday,24 hours",
    "wheelchair": true,
    "baby_change": false,
    "data_source": "https://www.rbkc.gov.uk/environment/environmental-health/public-toilets",
    "borough": "Kensington and Chelsea",
    "latitude": 51.493953,
    "longitude": -0.174378
  },
  {
    "name": "Public Toilet",
    "address": "Sloane Square; outside the Underground Station at the junction with Holbein Place",
    "opening_hours": "Monday to Sunday,24 hours",
    "wheelchair": false,
    "baby_change": false,
    "data_source": "https://www.rbkc.gov.uk/environment/environmental-health/public-toilets",
    "borough": "Kensington and Chelsea",
    "latitude": 51.492444,
    "longitude": -0.156706
  },
  {
    "name": "Public Toilet",
    "address": "Tavistock Piazza\u00a0with Portobello Road",
    "opening_hours": "Monday to Sunday,24 hours",
    "wheelchair": true,
    "baby_change": true,
    "data_source": "https://www.rbkc.gov.uk/environment/environmental-health/public-toilets",
    "borough": "Kensington and Chelsea",
    "latitude": 51.518470,
    "longitude": -0.206502
  },
  {
    "name": "Public Toilet",
    "address": "Avondale Park",
    "opening_hours": "7.30am to dusk",
    "wheelchair": true,
    "baby_change": false,
    "data_source": "https://www.rbkc.gov.uk/environment/environmental-health/public-toilets",
    "borough": "Kensington and Chelsea",
    "latitude": 51.510363,
    "longitude": -0.212386
  },
  {
    "name": "Public Toilet",
    "address": "Cremorne Gardens",
    "opening_hours": "7.30am to dusk",
    "wheelchair": false,
    "baby_change": false,
    "data_source": "https://www.rbkc.gov.uk/environment/environmental-health/public-toilets",
    "borough": "Kensington and Chelsea",
    "latitude": 51.479644,
    "longitude": -0.178560
  },
  {
    "name": "Public Toilet",
    "address": "Emslie Horiman Pleasance",
    "opening_hours": "7.30am to 30 minutes before dusk",
    "wheelchair": true,
    "baby_change": true,
    "data_source": "https://www.rbkc.gov.uk/environment/environmental-health/public-toilets",
    "borough": "Kensington and Chelsea",
    "latitude": 51.525362,
    "longitude": -0.209687
  },
  {
    "name": "Public Toilet",
    "address": "Kensington Memorial Park",
    "opening_hours": "7.30am to dusk",
    "wheelchair": true,
    "baby_change": true,
    "data_source": "https://www.rbkc.gov.uk/environment/environmental-health/public-toilets",
    "borough": "Kensington and Chelsea",
    "latitude": 51.520531,
    "longitude": -0.220186
  },
  {
    "name": "Public Toilet",
    "address": "Holland Park",
    "opening_hours": "8am to dusk",
    "wheelchair": true,
    "baby_change": true,
    "data_source": "https://www.rbkc.gov.uk/environment/environmental-health/public-toilets",
    "borough": "Kensington and Chelsea",
    "latitude": 51.501510,
    "longitude": -0.203348
  },
  {
    "name": "Public Toilet",
    "address": "Little Wormwood Scrubs",
    "opening_hours": "7.30am to dusk",
    "wheelchair": true,
    "baby_change": false,
    "data_source": "https://www.rbkc.gov.uk/environment/environmental-health/public-toilets",
    "borough": "Kensington and Chelsea",
    "latitude": 51.521357,
    "longitude": -0.228206
  },
  {
    "name": "Public Toilet",
    "address": "St Luke\u2019s Gardens",
    "opening_hours": "7.30am to dusk",
    "wheelchair": true,
    "baby_change": true,
    "data_source": "https://www.rbkc.gov.uk/environment/environmental-health/public-toilets",
    "borough": "Kensington and Chelsea",
    "latitude": 51.490172,
    "longitude": -0.168906
  },
  {
    "name": "Public Toilet",
    "address": "Westfield Park",
    "opening_hours": "7.30am to dusk",
    "wheelchair": true,
    "baby_change": false,
    "data_source": "https://www.rbkc.gov.uk/environment/environmental-health/public-toilets",
    "borough": "Kensington and Chelsea",
    "latitude": 51.479779,
    "longitude": -0.183094
  },
  {
    "name": "Public Toilet",
    "address": "Brompton Library",
    "opening_hours": "Monday, Tuesday and Thursday 9.30am to 8pm; Wednesday, Friday and Saturday, 9.30am to 5pm",
    "wheelchair": true,
    "baby_change": true,
    "data_source": "https://www.rbkc.gov.uk/environment/environmental-health/public-toilets",
    "borough": "Kensington and Chelsea",
    "latitude": 51.490134,
    "longitude": -0.188287
  },
  {
    "name": "Public Toilet",
    "address": "Kensington Central Library",
    "opening_hours": "Monday, Tuesday and Thursday 9.30am to 8pm; Wednesday, Friday and Saturday, 9.30am to 5pm",
    "wheelchair": true,
    "baby_change": true,
    "data_source": "https://www.rbkc.gov.uk/environment/environmental-health/public-toilets",
    "borough": "Kensington and Chelsea",
    "latitude": 51.502031,
    "longitude": -0.194997
  },
  {
    "name": "Public Toilet",
    "address": "North Kensington Library",
    "opening_hours": "Monday, Tuesday and Thursday 9.30am to 8pm; Wednesday, Friday and Saturday, 9.30am to 5pm",
    "wheelchair": true,
    "baby_change": true,
    "data_source": "https://www.rbkc.gov.uk/environment/environmental-health/public-toilets",
    "borough": "Kensington and Chelsea",
    "latitude": 51.516774,
    "longitude": -0.209249
  },
  {
    "name": "Public Toilet",
    "address": "Chelsea Library",
    "opening_hours": "Monday, Tuesday and Thursday 9.30am to 8pm; Wednesday, Friday and Saturday, 9.30am to 5pm; Sunday, 1 to 5pm",
    "wheelchair": true,
    "baby_change": true,
    "data_source": "https://www.rbkc.gov.uk/environment/environmental-health/public-toilets",
    "borough": "Kensington and Chelsea",
    "latitude": 51.487463,
    "longitude": -0.168252
  },
  {
    "name": "Public Toilet",
    "address": "Kensal Library- offered for children's use only",
    "opening_hours": "Monday, Tuesday and Thursday,1 to 6pm; Friday,9.30 to 5pm; Saturday, 9.30am to 1pm and 2 to 5pm",
    "wheelchair": false,
    "baby_change": false,
    "data_source": "https://www.rbkc.gov.uk/environment/environmental-health/public-toilets",
    "borough": "Kensington and Chelsea",
    "latitude": 51.533901,
    "longitude": -0.226100
  },
  {
    "name": "Public Toilet",
    "address": "Notting Hill Gate Library- offered for children's use only",
    "opening_hours": "Monday, 1 to 8pm ; Tuesday, 1 to 7pm; Thursday, 9.30am to 1pm; Friday and Saturday, 9.30am to 1pm and 2 to 5pm",
    "wheelchair": false,
    "baby_change": false,
    "data_source": "https://www.rbkc.gov.uk/environment/environmental-health/public-toilets",
    "borough": "Kensington and Chelsea",
    "latitude": 51.511410,
    "longitude": -0.197301
  }
]