[
  {
    "data_source": "Dataset sent in by Healthmatic 26/10/20",
    "address": "East Cheap London",
    "opening_hours": "24 hr",
    "name": "East Cheap Public Toilet",
    "baby_change": true,
    "latitude": 51.510918,
    "longitude": -0.085843,
    "wheelchair": true,
    "fee": "50p",
    "borough": "City of London"
  },
  {
    "data_source": "Dataset sent in by Healthmatic 26/10/20",
    "address": "Coulsden High St CR5 2NH",
    "opening_hours": "",
    "name": "Coulsden High St Public Toilet",
    "baby_change": false,
    "latitude": 51.319998,
    "longitude": -0.138764,
    "wheelchair": false,
    "fee": "",
    "borough": "Croydon"
  },
  {
    "data_source": "Dataset sent in by Healthmatic 26/10/20",
    "address": "Fulwell Cross IG6 2EA",
    "opening_hours": "",
    "name": "Fulwell Cross Public Toilet",
    "baby_change": false,
    "latitude": 51.5931777,
    "longitude": 0.0851636409288825,
    "wheelchair": false,
    "fee": "",
    "borough": "Redbridge"
  },
  {
    "data_source": "Dataset sent in by Healthmatic 26/10/20",
    "address": "Cowcross/Hope Pub EC1M 6BH",
    "opening_hours": "24 hr",
    "name": "Cowcross/Hope Pub Public Toilet",
    "baby_change": false,
    "latitude": 51.5198,
    "longitude": -0.102105,
    "wheelchair": false,
    "fee": "50p",
    "borough": "Islington"
  },
  {
    "data_source": "Dataset sent in by Healthmatic 26/10/20",
    "address": "Highbury Crescent N5 1RD",
    "opening_hours": "05:00 to 21:00",
    "name": "Highbury Crescent Public Toilet",
    "baby_change": true,
    "latitude": 51.547054,
    "longitude": -0.10396,
    "wheelchair": true,
    "fee": "20p",
    "borough": "Islington"
  },
  {
    "data_source": "Dataset sent in by Healthmatic 26/10/20",
    "address": "Jubilee Gardens Main Loo SE1 8XX",
    "opening_hours": "10:00:to 20:00",
    "name": "Jubilee Gardens Main Loo Public Toilet",
    "baby_change": true,
    "latitude": 51.504738,
    "longitude": -0.118535,
    "wheelchair": true,
    "fee": "50p",
    "borough": "Lambeth"
  },
  {
    "data_source": "Dataset sent in by Healthmatic 26/10/20",
    "address": "Grange Park CR5 1EE",
    "opening_hours": "24 hr",
    "name": "Grange Park Public Toilet",
    "baby_change": false,
    "latitude": 51.307178,
    "longitude": -0.120307,
    "wheelchair": true,
    "fee": "20p",
    "borough": "Croydon"
  },
  {
    "data_source": "Dataset sent in by Healthmatic 26/10/20",
    "address": "Kingsland Shopping Centre E8 2LX",
    "opening_hours": "24 hr",
    "name": "Kingsland Shopping Centre Public Toilet",
    "baby_change": true,
    "latitude": 51.5473225,
    "longitude": -0.0724518,
    "wheelchair": true,
    "fee": 1,
    "borough": "Hackney"
  },
  {
    "data_source": "Dataset sent in by Healthmatic 26/10/20",
    "address": "Seven Sisters Road N4 3NX",
    "opening_hours": "24 hr",
    "name": "Seven Sisters Road Public Toilet",
    "baby_change": true,
    "latitude": 51.562901,
    "longitude": -0.108242,
    "wheelchair": true,
    "fee": "20p",
    "borough": "Islington"
  },
  {
    "data_source": "Dataset sent in by Healthmatic 26/10/20",
    "address": "Jubilee Gardens Paddlegates SE1 7PB",
    "opening_hours": "",
    "name": "Jubilee Gardens Paddlegates Public Toilet",
    "baby_change": false,
    "latitude": 51.5061,
    "longitude": -0.117771,
    "wheelchair": false,
    "fee": "",
    "borough": "Lambeth"
  },
  {
    "data_source": "Dataset sent in by Healthmatic 26/10/20",
    "address": "Jubilee Gardens PT Auto SE1 7PB",
    "opening_hours": "10:00:to 20:00",
    "name": "Jubilee Gardens PT Auto Public Toilet",
    "baby_change": true,
    "latitude": 51.505207,
    "longitude": -0.117556,
    "wheelchair": true,
    "fee": "50p",
    "borough": "Lambeth"
  },
  {
    "data_source": "Dataset sent in by Healthmatic 26/10/20",
    "address": "Highbury Fields N5 1AR",
    "opening_hours": "24 hr",
    "name": "Highbury Fields Public Toilet",
    "baby_change": true,
    "latitude": 51.551325,
    "longitude": -0.09936,
    "wheelchair": true,
    "fee": "20p",
    "borough": "Islington"
  },
  {
    "data_source": "Dataset sent in by Healthmatic 26/10/20",
    "address": "Islington Green N1",
    "opening_hours": "24 hr",
    "name": "Islington Green Automatic Public Toilet",
    "baby_change": false,
    "latitude": 51.536241,
    "longitude": -0.1024704,
    "wheelchair": true,
    "fee": "20p",
    "borough": "Islington"
  },
  {
    "data_source": "Dataset sent in by Healthmatic 26/10/20",
    "address": "Holloway Road N7 0SH",
    "opening_hours": "24 hr",
    "name": "Holloway Road Automatic Public Toilet",
    "baby_change": false,
    "latitude": 51.556195,
    "longitude": -0.117544,
    "wheelchair": true,
    "fee": "20p",
    "borough": "Islington"
  },
  {
    "data_source": "Dataset sent in by Healthmatic 26/10/20",
    "address": "Newington Green N16 9PX",
    "opening_hours": "24 hr",
    "name": "Newington Green Public Toilet",
    "baby_change": false,
    "latitude": 51.551557,
    "longitude": -0.085285,
    "wheelchair": true,
    "fee": "20p",
    "borough": "Islington"
  },
  {
    "data_source": "Dataset sent in by Healthmatic 26/10/20",
    "address": "City Road EC1V 8EL",
    "opening_hours": "24 hr",
    "name": "City Road Public Toilet",
    "baby_change": false,
    "latitude": 51.529885,
    "longitude": -0.098039,
    "wheelchair": true,
    "fee": "20p",
    "borough": "Islington"
  }
]