[
  {
    "name": "Cafe Delice",
    "latitude": 51.63278,
    "longitude": 0.0060933,
    "address": "Cafe Delice - 141 Station Road, E4 6AG, 020 8523 9660",
    "opening_hours": "Facilities: Male and Female, Monday to Sunday: 7am to 6.30pm",
    "wheelchair": false,
    "baby_change": false,
    "borough": "Waltham Forest",
    "open": false,
    "data_source": "https://www.walthamforest.gov.uk/content/public-toilets"
  },
  {
    "name": "Cafe Vivaldi",
    "latitude": 51.6324015,
    "longitude": 0.0052189,
    "address": "Cafe Vivaldi - 117 Station Road, E4 6AG, 020 8559 3571",
    "opening_hours": "Facilities: Male and Female, Monday to Friday: 7am to 3.30pm, Saturday: 7am to 3pm, Sunday closed",
    "wheelchair": false,
    "baby_change": false,
    "borough": "Waltham Forest",
    "open": false,
    "data_source": "https://www.walthamforest.gov.uk/content/public-toilets"
  },
  {
    "name": "Chingford Mount Cemetery",
    "latitude": 51.6222886698018,
    "longitude": -0.0163286797838856,
    "address": "Chingford Mount Cemetery Offices - 121 Old Church Road, E4 6ST, 020 8524 5030",
    "opening_hours": "Facilities: 1 unisex toilet located in Offices, Monday to Thursday: 9am to -12 pm, 1- 3pm, Friday: 9.30am to 12 noon",
    "wheelchair": false,
    "baby_change": false,
    "borough": "Waltham Forest",
    "open": true,
    "data_source": "https://www.walthamforest.gov.uk/content/public-toilets"
  },
  {
    "name": "Costa Coffee",
    "latitude": 51.6179383,
    "longitude": -0.0198932,
    "address": "Costa Coffee Cafe - 24 Old Church Road, E4 8DD, 020 85291316",
    "opening_hours": "Monday to Saturday: 7am to 6pm, Sunday: 9am to 5pm",
    "wheelchair": true,
    "baby_change": true,
    "borough": "Waltham Forest",
    "open": true,
    "data_source": "https://www.walthamforest.gov.uk/content/public-toilets"
  },
  {
    "name": "Hale End",
    "latitude": 51.6093372,
    "longitude": -0.0010826,
    "address": "Hale End Library - Castle Avenue, Highams Park, E4 9QD, 020 8496 3000",
    "opening_hours": "Closed : Monday, Thursday, Sunday, Open: Wednesday, Friday 10am to 6pm,, Saturday 10am to 4pm, ",
    "wheelchair": true,
    "baby_change": true,
    "borough": "Waltham Forest",
    "open": false,
    "data_source": "https://www.walthamforest.gov.uk/content/public-toilets"
  },
  {
    "name": "Highams Lounge",
    "latitude": 51.6080737,
    "longitude": -0.001913,
    "address": "Highams Lounge Cafe - 14 The Avenue, E4 9LD, 020 8523 5938",
    "opening_hours": "Monday \u2013 Saturday 7am to 6.30pm, Sunday 7am to 4 pm",
    "wheelchair": true,
    "baby_change": true,
    "borough": "Waltham Forest",
    "open": false,
    "data_source": "https://www.walthamforest.gov.uk/content/public-toilets"
  },
  {
    "name": "Humphrys cafe",
    "latitude": 51.6094492,
    "longitude": 0.0099791,
    "address": "Humphrys cafe , The Highams Park, IG8 9RF, 020 8505 7999",
    "opening_hours": "Monday to Sunday 8am to 6pm",
    "wheelchair": true,
    "baby_change": true,
    "borough": "Waltham Forest",
    "open": false,
    "data_source": "https://www.walthamforest.gov.uk/content/public-toilets"
  },
  {
    "name": "Ridgeway Park",
    "latitude": 51.62501781911718,
    "longitude": -0.01077762189520392,
    "address": "Exact location in park unknown - Ridgeway Park - Old Church Road",
    "opening_hours": "Facilities: Male and Female, 8.30am to Sunset, Please see parks and open spaces page for specific opening times",
    "wheelchair": false,
    "baby_change": false,
    "borough": "Waltham Forest",
    "open": true,
    "data_source": "https://www.walthamforest.gov.uk/content/public-toilets"
  },
  {
    "name": "Station Cafe and sandwich Bar",
    "latitude": 51.608747,
    "longitude": -0.0019804,
    "address": "Station Cafe and sandwich Bar , 1 The Avenue, E4 9LB, 020 85272505",
    "opening_hours": ", Facilities: Unisex, Monday to Saturday 6.30am to 5pm, Sunday 9am to 4pm",
    "wheelchair": false,
    "baby_change": false,
    "borough": "Waltham Forest",
    "open": false,
    "data_source": "https://www.walthamforest.gov.uk/content/public-toilets"
  },
  {
    "name": "Trattoria Ibleo Restaurant",
    "latitude": 51.633165,
    "longitude": 0.0071093,
    "address": "Trattoria Ibleo Restaurant - 1 Station Approach, London, E4 6AL, 020 8529 9329",
    "opening_hours": "Monday to Friday Midday to 2.30pm, 6pm to 10.30pm, Saturday: 6pm to 11pm, Sunday: 12pm to 10.30pm",
    "wheelchair": true,
    "baby_change": false,
    "borough": "Waltham Forest",
    "open": false,
    "data_source": "https://www.walthamforest.gov.uk/content/public-toilets"
  },
  {
    "name": "The Melting Point Bistro,",
    "latitude": 51.6066913,
    "longitude": -0.0038901,
    "address": "The Melting Point Bistro, 16a Winchester Road, E4 9LN, 07795 976567",
    "opening_hours": "Facilities: Unisex, Monday to Tuesday 9am to 3pm, Wednesday to Sunday 9am to 10pm",
    "wheelchair": false,
    "baby_change": false,
    "borough": "Waltham Forest",
    "open": false,
    "data_source": "https://www.walthamforest.gov.uk/content/public-toilets"
  },
  {
    "name": "Library North Chingford",
    "latitude": 51.6315088,
    "longitude": 0.0006657,
    "address": "Library North Chingford \u2013 The Green, Station Road, E4 7EN, 0208 496 3000",
    "opening_hours": "Facilities: Children, Monday - Saturday 9am - 7 pm, Sunday 12am - 4pm",
    "wheelchair": false,
    "baby_change": false,
    "borough": "Waltham Forest",
    "open": false,
    "data_source": "https://www.walthamforest.gov.uk/content/public-toilets"
  },
  {
    "name": "Enjoy Cafe",
    "latitude": 51.5903263,
    "longitude": -0.0184441,
    "address": "Enjoy Cafe - 623 Forest Road, E17 4NE, 07846304793",
    "opening_hours": "Monday to Sunday: 6am to 6pm",
    "wheelchair": false,
    "baby_change": true,
    "borough": "Waltham Forest",
    "open": false,
    "data_source": "https://www.walthamforest.gov.uk/content/public-toilets"
  },
  {
    "name": "Higham Hill",
    "latitude": 51.595865,
    "longitude": -0.0295307,
    "address": "Higham Hill Library North Countess Road, E17 5HS, 020 8496 3000",
    "opening_hours": "Closed: Tuesday, Wednesday, Sunday, Open: Monday, Thursday, Friday 10am to 6pm, Saturday 10am to 4pm",
    "wheelchair": true,
    "baby_change": false,
    "borough": "Waltham Forest",
    "open": false,
    "data_source": "https://www.walthamforest.gov.uk/content/public-toilets"
  },
  {
    "name": "Home Made Community Cafe",
    "latitude": 51.5972053,
    "longitude": -0.038799,
    "address": "Home Made Community Cafe , Highams Hill Park, E17 5QT, 07975 662730",
    "opening_hours": "Monday to Friday 8am to 5pm, Saturday 8am to 4pm, Sunday 10am to 4pm",
    "wheelchair": true,
    "baby_change": true,
    "borough": "Waltham Forest",
    "open": true,
    "data_source": "https://www.walthamforest.gov.uk/content/public-toilets"
  },
  {
    "name": "Lancaster",
    "latitude": 51.5860898,
    "longitude": -0.0046067,
    "address": "Lancaster Home & Garden store , Unit 2, 186 Wood Rd, E17 3NZ, 020 8520 1088",
    "opening_hours": "Monday to Friday: 8am to 6pm, Saturday 8am to 7pm, Sunday: 10am to 5pm",
    "wheelchair": false,
    "baby_change": true,
    "borough": "Waltham Forest",
    "open": true,
    "data_source": "https://www.walthamforest.gov.uk/content/public-toilets"
  },
  {
    "name": "Le Delice",
    "latitude": 51.5880611,
    "longitude": -0.0230644,
    "address": "Le Delice Restaurant - 114 Hoe Street, E17 4QR, 020 8521 0606",
    "opening_hours": ", Monday to Saturday: 7.30am to 10pm, Sunday: 8am to 10pm",
    "wheelchair": true,
    "baby_change": true,
    "borough": "Waltham Forest",
    "open": false,
    "data_source": "https://www.walthamforest.gov.uk/content/public-toilets"
  },
  {
    "name": "McDonalds Walthamstow",
    "latitude": 51.5836333,
    "longitude": -0.0213201,
    "address": "258-260 Hoe Street, E17 3AX, 020 85202372",
    "opening_hours": "Sunday to Thursday 5am to 1am, Friday, Saturday 5am to 3am",
    "wheelchair": true,
    "baby_change": true,
    "borough": "Waltham Forest",
    "open": true,
    "data_source": "https://www.walthamforest.gov.uk/content/public-toilets"
  },
  {
    "name": "The Bell",
    "latitude": 51.5902028,
    "longitude": -0.0192335,
    "address": "The Bell Restaurant - 617 Forest Road, E17 4NE, 020 8523 2277",
    "opening_hours": ", Sunday to Monday Midday to 11pm, Tuesday to Thursday Midday to Midnight, Friday Midday to 1am",
    "wheelchair": true,
    "baby_change": true,
    "borough": "Waltham Forest",
    "open": false,
    "data_source": "https://www.walthamforest.gov.uk/content/public-toilets"
  },
  {
    "name": "The Mall",
    "latitude": 51.5834059,
    "longitude": -0.0256648,
    "address": "The Mall Shopping Centre - The Mall Ltd, 45 Selbourne Walk E17 7JR",
    "opening_hours": "Monday to Saturday 7am to 9pm, Sunday: 11am to 5pm",
    "wheelchair": true,
    "baby_change": true,
    "borough": "Waltham Forest",
    "open": true,
    "data_source": "https://www.walthamforest.gov.uk/content/public-toilets"
  },
  {
    "name": "The Mill",
    "latitude": 51.581356,
    "longitude": -0.0367887,
    "address": "The Mill -Community Centre 7-11 Coppermill Lane, E17 7H, 020 8521 3211",
    "opening_hours": "Closed Monday, Open Tuesday to Friday 9.30 to 6pm, Saturday to Sunday 10am to 2pm",
    "wheelchair": true,
    "baby_change": false,
    "borough": "Waltham Forest",
    "open": false,
    "data_source": "https://www.walthamforest.gov.uk/content/public-toilets"
  },
  {
    "name": "Walthamstow",
    "latitude": 51.5844505,
    "longitude": -0.0385143,
    "address": "Walthamstow Library High Street Walthamstow, E17 7JN, 020 8496 3000",
    "opening_hours": "Monday to Friday: 9am to 7pm, Saturday: 9am to 6pm, Sunday: 10am to 4pm",
    "wheelchair": true,
    "baby_change": true,
    "borough": "Waltham Forest",
    "open": false,
    "data_source": "https://www.walthamforest.gov.uk/content/public-toilets"
  },
  {
    "name": "William Morris Gallery",
    "latitude": 51.5912407,
    "longitude": -0.0224572,
    "address": "William Morris Gallery - Forest Road Walthamstow, E17 4PP, 020 8496 4390",
    "opening_hours": "Closed Monday, Open Tuesday to Sunday: 10am to 5pm",
    "wheelchair": true,
    "baby_change": true,
    "borough": "Waltham Forest",
    "open": false,
    "data_source": "https://www.walthamforest.gov.uk/content/public-toilets"
  },
  {
    "name": "Wood Street",
    "latitude": 51.5871909,
    "longitude": -0.0061427,
    "address": "Wood Street Library Forest Road, Walthamstow, E17 4AA, 020 8496 3000",
    "opening_hours": "Closed; Wednesday, Thursday and Sunday, Open; Monday, Tuesday, Friday: 10am to 6pm, Saturday: 10am to 4pm",
    "wheelchair": true,
    "baby_change": true,
    "borough": "Waltham Forest",
    "open": false,
    "data_source": "https://www.walthamforest.gov.uk/content/public-toilets"
  },
  {
    "name": "Yasar Kebab & Steak's",
    "latitude": 51.5874123,
    "longitude": -0.0425014,
    "address": "Yasar Kebab & Steak's 8 Blackhorse Lane, E17 6HJ, 020 85274081",
    "opening_hours": "Sunday to Thursday Midday to 2am, Friday to Saturday Midday to 4am",
    "wheelchair": true,
    "baby_change": true,
    "borough": "Waltham Forest",
    "open": false,
    "data_source": "https://www.walthamforest.gov.uk/content/public-toilets"
  },
  {
    "name": "Ye Olde Rose and Crown Theatre Pub",
    "latitude": 51.5877722,
    "longitude": -0.0228193,
    "address": "Ye Olde Rose and Crown Theatre Pub - 53-55 Hoe Street, E17 4SA, 020 8509 3880",
    "opening_hours": "Facilities: Male and Female, Monday to Thursday: 10am to 11pm, Friday and Saturday: 10am to 1am, Sunday: Midday to 11pm",
    "wheelchair": false,
    "baby_change": false,
    "borough": "Waltham Forest",
    "open": false,
    "data_source": "https://www.walthamforest.gov.uk/content/public-toilets"
  },
  {
    "name": "The Coroners Court",
    "latitude": 51.5780673,
    "longitude": -0.0278717,
    "address": "The Coroners Court , Queens Road, E17 8QP",
    "opening_hours": "Facilities: Males & Female, Monday - Friday 8.30 - 12.00, 1.00 - 3.30 pm",
    "wheelchair": false,
    "baby_change": false,
    "borough": "Waltham Forest",
    "open": false,
    "data_source": "https://www.walthamforest.gov.uk/content/public-toilets"
  },
  {
    "name": "Epicentre",
    "latitude": 51.5597222,
    "longitude": 0.0033669,
    "address": "Epicentre - 41 West St, E11 4LJ, 020 8539 2432",
    "opening_hours": "Mon to Friday: 8.30am to 5pm",
    "wheelchair": true,
    "baby_change": true,
    "borough": "Waltham Forest",
    "open": true,
    "data_source": "https://www.walthamforest.gov.uk/content/public-toilets"
  },
  {
    "name": "Leytonstone Library",
    "latitude": 51.568224,
    "longitude": 0.0085772,
    "address": "Leytonstone Library - 6 Church Lane, E11 1HG, 020 8496 3000",
    "opening_hours": "Monday to Friday: 9am to 7pm, Saturday: 9am to 6pm, Sunday: Midday to 4pm",
    "wheelchair": true,
    "baby_change": true,
    "borough": "Waltham Forest",
    "open": false,
    "data_source": "https://www.walthamforest.gov.uk/content/public-toilets"
  },
  {
    "name": "Langthorne Park",
    "latitude": 51.55599884767403,
    "longitude": 0.004134069981722461,
    "address": "Langthorne Park , Birch Grove, E11 1HG, 020 8496 2657",
    "opening_hours": ", Monday to Sunday 8.30-sunset, Please see parks and open spaces page for specific opening times",
    "wheelchair": true,
    "baby_change": true,
    "borough": "Waltham Forest",
    "open": true,
    "data_source": "https://www.walthamforest.gov.uk/content/public-toilets"
  },
  {
    "name": "L'Horizon Patisserie",
    "latitude": 51.567787,
    "longitude": 0.0084,
    "address": "L'Horizon Patisserie - 809 High Road, E11 1HQ, 020 8279 0999",
    "opening_hours": "Monday to Saturday: 7am to 8pm, Sunday: 8am to 7pm",
    "wheelchair": true,
    "baby_change": false,
    "borough": "Waltham Forest",
    "open": false,
    "data_source": "https://www.walthamforest.gov.uk/content/public-toilets"
  },
  {
    "name": "Plough and Harrow",
    "latitude": 51.5570933,
    "longitude": 0.0039343,
    "address": "Plough and Harrow Pub- 419 High Road, E11 4JU, 020 8558 2660",
    "opening_hours": "Sunday to Thursday 11am to 11pm, Friday, Saturday 11am to midnight",
    "wheelchair": true,
    "baby_change": false,
    "borough": "Waltham Forest",
    "open": false,
    "data_source": "https://www.walthamforest.gov.uk/content/public-toilets"
  },
  {
    "name": "Cann Hall Pavilion",
    "latitude": 51.557214,
    "longitude": 0.0134482,
    "address": "Cann Hall Pavilion , Cann Hall Road, E17 9ET",
    "opening_hours": "Open during hours of business",
    "wheelchair": true,
    "baby_change": false,
    "borough": "Waltham Forest",
    "open": true,
    "data_source": "https://www.walthamforest.gov.uk/content/public-toilets"
  },
  {
    "name": "Coronation Gardens Park",
    "latitude": 51.5594090672693,
    "longitude": -0.011811818137091229,
    "address": "Coronation Gardens Park - High Road, E10 5NA, 020 8496 2657",
    "opening_hours": "8.30am to sunset, Please see parks and open spaces page for specific opening times",
    "wheelchair": true,
    "baby_change": true,
    "borough": "Waltham Forest",
    "open": true,
    "data_source": "https://www.walthamforest.gov.uk/content/public-toilets"
  },
  {
    "name": "Drapers Field",
    "latitude": 51.55125845778333,
    "longitude": -0.004864221273487268,
    "address": "Drapers Field Recreation Ground - High Road, E15 2DD, 020 8496 2657",
    "opening_hours": "8.30am to sunset",
    "wheelchair": true,
    "baby_change": true,
    "borough": "Waltham Forest",
    "open": true,
    "data_source": "https://www.walthamforest.gov.uk/content/public-toilets"
  },
  {
    "name": "KFC Lea Bridge Road",
    "latitude": 51.5740649,
    "longitude": -0.0164683,
    "address": "KFC Lea Bridge Road - 590 Lea Bridge Road, E10 7DN, 020 8988 0654",
    "opening_hours": "Sunday to Thursday 10am to 11pm, Friday to Saturday 10am to 1am",
    "wheelchair": true,
    "baby_change": true,
    "borough": "Waltham Forest",
    "open": true,
    "data_source": "https://www.walthamforest.gov.uk/content/public-toilets"
  },
  {
    "name": "Kukoolala Cafe",
    "latitude": 51.5646333,
    "longitude": -0.026116,
    "address": "Kukoolala Cafe , Leyton Jubilee Park, 3 Marsh Lane, E10 7BL, 020 8539 0732",
    "opening_hours": "Monday to Saturday 9.30am to 5pm, Sunday 9am to 5pm",
    "wheelchair": true,
    "baby_change": true,
    "borough": "Waltham Forest",
    "open": true,
    "data_source": "https://www.walthamforest.gov.uk/content/public-toilets"
  },
  {
    "name": "Lea Bridge Library",
    "latitude": 51.5708146,
    "longitude": -0.0257517,
    "address": "Lea Bridge Library - Lea Bridge Road, E10 7HU, 020 8496 3000",
    "opening_hours": "Closed Sunday, Monday, Friday, Open Tuesday, Wednesday, Thursday: 10am to 6pm, Saturday: 10am to 4pm",
    "wheelchair": true,
    "baby_change": true,
    "borough": "Waltham Forest",
    "open": false,
    "data_source": "https://www.walthamforest.gov.uk/content/public-toilets"
  },
  {
    "name": "Leyton",
    "latitude": 51.5584732,
    "longitude": -0.0094119,
    "address": "Leyton Library - High Road, E10 5QH, 020 8496 3000",
    "opening_hours": "Monday to Friday: 9am to 10pm, Saturday, Sunday: 9am to 6pm",
    "wheelchair": true,
    "baby_change": true,
    "borough": "Waltham Forest",
    "open": false,
    "data_source": "https://www.walthamforest.gov.uk/content/public-toilets"
  },
  {
    "name": "The Holly Tree",
    "latitude": 51.5558059,
    "longitude": 0.0183649,
    "address": "The Holly Tree - 141 Dames Road, E7 0DZ, 020 8221 9830",
    "opening_hours": "Monday 5pm to 11pm, Tuesday to Thursday Midday to 11pm, Friday to Saturday Midday to Midnight, Sunday Midday to 10.30pm",
    "wheelchair": true,
    "baby_change": false,
    "borough": "Waltham Forest",
    "open": false,
    "data_source": "https://www.walthamforest.gov.uk/content/public-toilets"
  },
  {
    "name": "Costa Coffee",
    "latitude": 51.6179383,
    "longitude": -0.0198932,
    "address": "Costa Coffee Cafe - 24 Old Church Road, E4 8DD, 020 85291316",
    "opening_hours": "Monday to Saturday: 7am to 6pm, Sunday: 9am to 5pm",
    "wheelchair": false,
    "baby_change": false,
    "borough": "Waltham Forest",
    "open": true,
    "data_source": "https://www.walthamforest.gov.uk/content/public-toilets"
  },
  {
    "name": "Hale End",
    "latitude": 51.6093372,
    "longitude": -0.0010826,
    "address": "Hale End Library - Castle Avenue, Highams Park, E4 9QD, 020 8496 3000",
    "opening_hours": "Closed : Monday, Thursday, Sunday, Open: Wednesday, Friday 10am to 6pm,, Saturday 10am to 4pm",
    "wheelchair": false,
    "baby_change": false,
    "borough": "Waltham Forest",
    "open": false,
    "data_source": "https://www.walthamforest.gov.uk/content/public-toilets"
  },
  {
    "name": "Highams Lounge",
    "latitude": 51.6080737,
    "longitude": -0.001913,
    "address": "Highams Lounge Cafe - 14 The Avenue, E4 9LD, 020 8523 5938",
    "opening_hours": "Monday - Saturday 7am to 6.30pm, Sunday 7am to 4 pm",
    "wheelchair": false,
    "baby_change": false,
    "borough": "Waltham Forest",
    "open": false,
    "data_source": "https://www.walthamforest.gov.uk/content/public-toilets"
  },
  {
    "name": "Queen Elizabeth Pub",
    "latitude": 51.6302603,
    "longitude": 0.0134825,
    "address": "Queen Elizabeth Pub - 95 Forest Side, E4 6BA, 020 8529 1160",
    "opening_hours": "",
    "wheelchair": false,
    "baby_change": false,
    "borough": "Waltham Forest",
    "open": false,
    "data_source": "https://www.walthamforest.gov.uk/content/public-toilets"
  }
]