[
  {
    "data_source": "https://www.westminster.gov.uk/leisure-libraries-and-community/public-toilets on 20/07/2021",
    "borough": "Westminster",
    "address": "By St Pauls Church in Piazza WC2E 8NA",
    "opening_hours": "7am to midnight; Monday to Sunday",
    "name": "Public Convenience Covent Garden",
    "baby_change": true,
    "latitude": 51.510965,
    "longitude": -0.121857,
    "wheelchair": false,
    "open": true,
    "fee": "Â£1 cash/card"
  },
  {
    "data_source": "https://www.westminster.gov.uk/leisure-libraries-and-community/public-toilets on 20/07/2021",
    "borough": "Westminster",
    "address": "Park side in tube station W1V 9DE",
    "opening_hours": "7.30am to 11pm; Monday to Sunday",
    "name": "Public Convenience Green Park",
    "baby_change": true,
    "latitude": 51.50605,
    "longitude": -0.141328,
    "wheelchair": false,
    "open": true,
    "fee": "50p"
  },
  {
    "data_source": "https://www.westminster.gov.uk/leisure-libraries-and-community/public-toilets on 20/07/2021",
    "borough": "Westminster",
    "address": "Tavistock Court, by London Transport Museum WC2E 7PA",
    "opening_hours": "9am to 5pm; Monday to Sunday",
    "name": "Public Convenience Jubilee Hall, Covent Garden",
    "baby_change": true,
    "latitude": 51.511113,
    "longitude": -0.119989,
    "wheelchair": true,
    "open": true
  },
  {
    "data_source": "https://www.westminster.gov.uk/leisure-libraries-and-community/public-toilets on 20/07/2021",
    "borough": "Westminster",
    "address": "North side of Leicester Square WC2H 7NA",
    "opening_hours": "7am to 12.30am; Monday to Sunday",
    "name": "Public Convenience Leicester Square ",
    "baby_change": true,
    "latitude": 51.510278,
    "longitude": -0.128349,
    "wheelchair": false,
    "open": true,
    "fee": "50p"
  },
  {
    "data_source": "https://www.westminster.gov.uk/leisure-libraries-and-community/public-toilets on 20/07/2021",
    "borough": "Westminster",
    "address": "Paddington Street Gardens, junction with Ashland Place WIM 3LA",
    "opening_hours": "9am to 6pm; Monday to Sunday",
    "name": "Public Convenience Paddington Street",
    "baby_change": true,
    "latitude": 51.520017,
    "longitude": -0.152133,
    "wheelchair": true,
    "open": true
  },
  {
    "data_source": "https://www.westminster.gov.uk/leisure-libraries-and-community/public-toilets on 20/07/2021",
    "borough": "Westminster",
    "address": "In subway, under Parliament Street, junction with Parliament Square SW1A 2NU",
    "opening_hours": "8am to 9pm; Monday to Sunday",
    "name": "Public Convenience Parliament Street",
    "baby_change": false,
    "latitude": 51.500623,
    "longitude": -0.124689,
    "wheelchair": false,
    "open": true
  },
  {
    "data_source": "https://www.westminster.gov.uk/leisure-libraries-and-community/public-toilets on 20/07/2021",
    "borough": "Westminster",
    "address": "Inside tube station subway W1J 0TR",
    "opening_hours": "7.30am to 11.30pm; Monday to Saturday; (10am to 11pm on Sundays)",
    "name": "Public Convenience Piccadilly Circus",
    "baby_change": true,
    "latitude": 51.509555,
    "longitude": -0.1332,
    "wheelchair": false,
    "open": true
  },
  {
    "data_source": "https://www.westminster.gov.uk/leisure-libraries-and-community/public-toilets on 20/07/2021",
    "borough": "Westminster",
    "address": "Junction of Queensway and Westbourne Grove (on central island) W2 5HL",
    "opening_hours": "8am to 11pm; Monday to Sunday",
    "name": "Public Convenience Queensway",
    "baby_change": true,
    "latitude": 51.515543,
    "longitude": -0.18701,
    "wheelchair": false,
    "open": true
  },
  {
    "data_source": "https://www.westminster.gov.uk/leisure-libraries-and-community/public-toilets on 20/07/2021",
    "borough": "Westminster",
    "address": "Next to Embankment Tube Station WC2N 5DJ",
    "opening_hours": "7am to 7pm; Monday to Sunday",
    "name": "Public Convenience Victoria Embankment",
    "baby_change": true,
    "latitude": 51.507092,
    "longitude": -0.120266,
    "wheelchair": true,
    "open": true,
    "fee": "50p (cash)"
  },
  {
    "data_source": "https://www.westminster.gov.uk/leisure-libraries-and-community/public-toilets on 20/07/2021",
    "borough": "Westminster",
    "address": "Junction with Wellington Road, opposite Lords NW8 7PB",
    "opening_hours": "10am to 6pm; Monday to Sunday",
    "name": "Public Convenience Wellington Place",
    "baby_change": true,
    "latitude": 51.530993,
    "longitude": -0.168808,
    "wheelchair": true,
    "open": true
  },
  {
    "data_source": "https://www.westminster.gov.uk/leisure-libraries-and-community/public-toilets on 20/07/2021",
    "borough": "Westminster",
    "address": "Junction Embankment by riverside SW1A 2HR",
    "opening_hours": "9am to 7pm; Monday to Sunday",
    "name": "Public Convenience Westminster Bridge",
    "baby_change": true,
    "latitude": 51.501101,
    "longitude": -0.12196,
    "wheelchair": true,
    "open": true,
    "fee": "50p"
  },
  {
    "data_source": "https://www.westminster.gov.uk/leisure-libraries-and-community/public-toilets on 20/07/2021",
    "borough": "Westminster",
    "address": "Opposite Selfridges in Oxford Street W1A 1DW",
    "opening_hours": "24 Hours",
    "name": "Automatic Public Convenience Balderton Street APC",
    "baby_change": false,
    "latitude": 51.513344,
    "longitude": -0.150861,
    "wheelchair": true,
    "open": true
  },
  {
    "data_source": "https://www.westminster.gov.uk/leisure-libraries-and-community/public-toilets on 20/07/2021",
    "borough": "Westminster",
    "address": "Junction with Berwick Street market W1A 4YL",
    "opening_hours": "24 Hours",
    "name": "Automatic Public Convenience Broadwick Street APC",
    "baby_change": true,
    "latitude": 51.513088,
    "longitude": -0.134252,
    "wheelchair": true,
    "open": true,
    "fee": "50p"
  },
  {
    "data_source": "https://www.westminster.gov.uk/leisure-libraries-and-community/public-toilets on 20/07/2021",
    "borough": "Westminster",
    "address": "End of Stratton Street W1J 8NL",
    "opening_hours": "24 Hours",
    "name": "Automatic Public Convenience Mayfair Place APC",
    "baby_change": false,
    "latitude": 51.506788,
    "longitude": -0.141864,
    "wheelchair": true,
    "open": true
  },
  {
    "data_source": "https://www.westminster.gov.uk/leisure-libraries-and-community/public-toilets on 20/07/2021",
    "borough": "Westminster",
    "address": "Junction with Regent Street W1B 2EP",
    "opening_hours": "24 Hours",
    "name": "Automatic Public Convenience Princes Street APC",
    "baby_change": false,
    "latitude": 51.514145,
    "longitude": -0.140522,
    "wheelchair": true,
    "open": true
  },
  {
    "data_source": "https://www.westminster.gov.uk/leisure-libraries-and-community/public-toilets on 20/07/2021",
    "borough": "Westminster",
    "address": "Junction with Horseferry Road, by Taxi rank SW1P 2DZ",
    "opening_hours": "24 Hours",
    "name": "Automatic Public Convenience Regency Place APC",
    "baby_change": false,
    "latitude": 51.494244,
    "longitude": -0.130647,
    "wheelchair": true,
    "open": true
  },
  {
    "data_source": "https://www.westminster.gov.uk/leisure-libraries-and-community/public-toilets on 20/07/2021",
    "borough": "Westminster",
    "address": "Outside 180 WC2R 1EF",
    "opening_hours": "24 Hours",
    "name": "Automatic Public Convenience The Strand APC",
    "baby_change": false,
    "latitude": 51.512081,
    "longitude": -0.113285,
    "wheelchair": true,
    "open": true
  },
  {
    "data_source": "https://www.westminster.gov.uk/leisure-libraries-and-community/public-toilets on 20/07/2021",
    "borough": "Westminster",
    "address": "Junction of Harrow Road and Walterton Road W9 3LB",
    "opening_hours": "24 Hours",
    "name": "Automatic Public Convenience Walterton Road APC",
    "baby_change": false,
    "latitude": 51.523831,
    "longitude": -0.199884,
    "wheelchair": true,
    "open": true
  },
  {
    "data_source": "https://www.westminster.gov.uk/leisure-libraries-and-community/public-toilets on 20/07/2021",
    "borough": "Westminster",
    "address": "Beside the APC site W1F 0DP",
    "opening_hours": "from Friday evening to Monday morning",
    "name": "Temporary Public Convenience Broadwick Street",
    "baby_change": false,
    "latitude": 51.513137,
    "longitude": -0.134096,
    "wheelchair": false,
    "open": true
  },
  {
    "data_source": "https://www.westminster.gov.uk/leisure-libraries-and-community/public-toilets on 20/07/2021",
    "borough": "Westminster",
    "address": "Junction with Berwick Street W1F 0QB",
    "opening_hours": "from Friday evening to Monday morning",
    "name": "Temporary Public Convenience Broadwick Street",
    "baby_change": false,
    "latitude": 51.513305,
    "longitude": -0.133658,
    "wheelchair": false,
    "open": true
  },
  {
    "data_source": "https://www.westminster.gov.uk/leisure-libraries-and-community/public-toilets on 20/07/2021",
    "borough": "Westminster",
    "address": "Junction with Orange Street WC2H 0HE",
    "opening_hours": "from Friday evening to Monday morning",
    "name": "Temporary Public Convenience Charing Cross Road",
    "baby_change": false,
    "latitude": 51.509278,
    "longitude": -0.126781,
    "wheelchair": false,
    "open": true
  },
  {
    "data_source": "https://www.westminster.gov.uk/leisure-libraries-and-community/public-toilets on 20/07/2021",
    "borough": "Westminster",
    "address": "Junction with Shaftesbury Avenue (o/s McDonalds) W1D 7NE",
    "opening_hours": "from Friday evening to Monday morning",
    "name": "Temporary Public Convenience Great Windmill Street",
    "baby_change": false,
    "latitude": 51.510516,
    "longitude": -0.132418,
    "wheelchair": false,
    "open": true
  },
  {
    "data_source": "https://www.westminster.gov.uk/leisure-libraries-and-community/public-toilets on 20/07/2021",
    "borough": "Westminster",
    "address": "Junction with Haymarket SW1Y 4UR",
    "opening_hours": "from Friday evening to Monday morning",
    "name": "Temporary Public Convenience Jermyn Street",
    "baby_change": false,
    "latitude": 51.509189,
    "longitude": -0.131506,
    "wheelchair": false,
    "open": true
  },
  {
    "data_source": "https://www.westminster.gov.uk/leisure-libraries-and-community/public-toilets on 20/07/2021",
    "borough": "Westminster",
    "address": "Junction with Great Marlborough Street W1F 7HU",
    "opening_hours": "from Friday evening to Monday morning",
    "name": "Temporary Public Convenience Kingly Street",
    "baby_change": false,
    "latitude": 51.513261,
    "longitude": -0.139086,
    "wheelchair": false,
    "open": true,
    "fee": "50p"
  },
  {
    "data_source": "https://www.westminster.gov.uk/leisure-libraries-and-community/public-toilets on 20/07/2021",
    "borough": "Westminster",
    "address": "Junction with Great Titchfield Street W1W 6XF",
    "opening_hours": "from Friday evening to Monday morning",
    "name": "Temporary Public Convenience Oxford Street",
    "baby_change": false,
    "latitude": 51.519889,
    "longitude": -0.139933,
    "wheelchair": false,
    "open": true
  },
  {
    "data_source": "https://www.westminster.gov.uk/leisure-libraries-and-community/public-toilets on 20/07/2021",
    "borough": "Westminster",
    "address": "Junction with Ramillies Place W1D 2JX",
    "opening_hours": "from Friday evening to Monday morning",
    "name": "Temporary Public Convenience Ramillies Street",
    "baby_change": false,
    "latitude": 51.514539,
    "longitude": -0.13735,
    "wheelchair": false,
    "open": true
  },
  {
    "data_source": "https://www.westminster.gov.uk/leisure-libraries-and-community/public-toilets on 20/07/2021",
    "borough": "Westminster",
    "address": "Junction with Shaftesbury Avenue WC2H 0BA",
    "opening_hours": "from Friday evening to Monday morning",
    "name": "Temporary Public Convenience Romilly Street",
    "baby_change": false,
    "latitude": 51.512809,
    "longitude": -0.127823,
    "wheelchair": false,
    "open": true
  },
  {
    "data_source": "https://www.westminster.gov.uk/leisure-libraries-and-community/public-toilets on 20/07/2021",
    "borough": "Westminster",
    "address": "Junction with Carlisle Street W1D 3RR",
    "opening_hours": "from Friday evening to Monday morning",
    "name": "Temporary Public Convenience Soho Square",
    "baby_change": false,
    "latitude": 51.514632,
    "longitude": -0.131062,
    "wheelchair": false,
    "open": true
  },
  {
    "data_source": "https://www.westminster.gov.uk/leisure-libraries-and-community/public-toilets on 20/07/2021",
    "borough": "Westminster",
    "address": "Junction with Bateman Buildings W1D 3QR",
    "opening_hours": "from Friday evening to Monday morning",
    "name": "Temporary Public Convenience Soho Square",
    "baby_change": false,
    "latitude": 51.514498,
    "longitude": -0.130371,
    "wheelchair": false,
    "open": true
  },
  {
    "data_source": "https://www.westminster.gov.uk/leisure-libraries-and-community/public-toilets on 20/07/2021",
    "borough": "Westminster",
    "address": "Junction with Kingly Street W1B 5TJ",
    "opening_hours": "from Friday evening to Monday morning",
    "name": "Temporary Public Convenience Tenison Court",
    "baby_change": false,
    "latitude": 51.51189,
    "longitude": -0.137521,
    "wheelchair": false,
    "open": true
  },
  {
    "data_source": "https://www.westminster.gov.uk/leisure-libraries-and-community/public-toilets on 20/07/2021",
    "borough": "Westminster",
    "address": "Junction with Old Compton Street W1D 6QE",
    "opening_hours": "from Friday evening to Monday morning",
    "name": "Temporary Public Convenience Wardour Street",
    "baby_change": false,
    "latitude": 51.512013,
    "longitude": -0.131618,
    "wheelchair": false,
    "open": true
  },
  {
    "data_source": "https://www.westminster.gov.uk/leisure-libraries-and-community/public-toilets on 20/07/2021",
    "borough": "Westminster",
    "address": "Junction of Violet Hill with Abbey Gardens NW8 9BH",
    "opening_hours": "",
    "name": "Public Convenience Violet Hill Gardens",
    "baby_change": false,
    "latitude": 51.53251974,
    "longitude": -0.18055319,
    "wheelchair": false,
    "open": true
  },
  {
    "data_source": "https://www.westminster.gov.uk/leisure-libraries-and-community/public-toilets on 20/07/2021",
    "borough": "Westminster",
    "address": "Opposite 6 Warwick Avenue W2 1XB",
    "opening_hours": "",
    "name": "Public Convenience Rembrandt Gardens",
    "baby_change": false,
    "latitude": 51.52085774,
    "longitude": -0.17956651,
    "wheelchair": false,
    "open": true
  },
  {
    "data_source": "https://www.westminster.gov.uk/leisure-libraries-and-community/public-toilets on 20/07/2021",
    "borough": "Westminster",
    "address": "Entrance via Carlton Vale or Randolph Avenue W9 1PD",
    "opening_hours": "",
    "name": "Public Convenience Paddington Recreation Ground",
    "baby_change": false,
    "latitude": 51.53033772,
    "longitude": -0.18892239,
    "wheelchair": false,
    "open": true
  }
]